

 $GNRMC,090151.000,A,5545.7338,N,03741.0954,E,0.00,288.31,111122,,,A*7B
 $GPVTG,288.31,T,,M,0.00,N,0.00,K,A*3D
 $GPGGA,090151.000,5545.7338,N,03741.0954,E,1,4,3.27,211.6,M,14.4,M,,*50
 $GNGSA,A,3,03,31,16,26,,,,,,,,,3.42,3.27,0.98*1C
 $GNGSA,A,3,,,,,,,,,,,,,3.42,3.27,0.98*1E
 $GPGSV,3,1,10,04,86,104,,09,53,262,,03,42,144,30,06,39,285,*78
 $GPGSV,3,2,10,26,29,080,23,11,21,320,,16,19,112,24,31,14,046,22*73
 $GPGSV,3,3,10,07,13,207,,29,02,022,*71
 $GLGSV,3,1,09,70,65,084,,71,55,301,,79,30,034,20,87,29,325,*6A
 $GLGSV,3,2,09,73,20,164,13,72,08,288,,69,06,101,,88,04,005,*6D
 $GLGSV,3,3,09,85,01,221,*51
 $GNGLL,5545.7338,N,03741.0954,E,090151.000,A,A*4C
 $GNRMC,090152.000,A,5545.7338,N,03741.0954,E,0.00,288.31,111122,,,A*78
 $GPVTG,288.31,T,,M,0.00,N,0.00,K,A*3D
 $GPGGA,090152.000,5545.7338,N,03741.0954,E,1,4,3.27,211.6,M,14.4,M,,*53
 $GNGSA,A,3,03,31,16,26,,,,,,,,,3.42,3.27,0.98*1C
 $GNGSA,A,3,,,,,,,,,,,,,3.42,3.27,0.98*1E
 $GPGSV,3,1,10,04,86,104,,09,53,262,,03,42,144,30,06,39,285,*78
 $GPGSV,3,2,10,26,29,080,23,11,21,320,,16,19,112,24,31,14,046,21*70
 $GPGSV,3,3,10,07,13,207,,29,02,022,*71
 $GLGSV,3,1,09,70,65,084,,71,55,301,,79,30,034,20,87,29,325,*6A
 $GLGSV,3,2,09,73,21,164,13,72,08,288,,69,06,101,,88,04,005,*6C
 $GLGSV,3,3,09,85,01,221,*51
 $GNGLL,5545.7338,N,03741.0954,E,090152.000,A,A*4F
 $GNRMC,090153.000,A,5545.7338,N,03741.0954,E,0.00,288.31,111122,,,A*79
 $GPVTG,288.31,T,,M,0.00,N,0.00,K,A*3D
 $GPGGA,090153.000,5545.7338,N,03741.0954,E,1,4,3.27,211.6,M,14.4,M,,*52
 $GNGSA,A,3,03,31,16,26,,,,,,,,,3.42,3.27,0.98*1C
 $GNGSA,A,3,,,,,,,,,,,,,3.42,3.27,0.98*1E
 $GPGSV,3,1,10,04,86,104,,09,53,262,,03,42,144,29,06,39,285,*70
 $GPGSV,3,2,10,26,29,080,23,11,21,320,,16,19,112,24,31,14,046,21*70
 $GPGSV,3,3,10,07,13,207,,29,02,022,*71
 $GLGSV,3,1,09,70,65,084,,71,55,301,,79,30,034,20,87,29,325,*6A
 $GLGSV,3,2,09,73,21,164,14,72,08,288,,69,06,101,,88,04,005,*6B
 $GLGSV,3,3,09,85,01,221,*51
 $GNGLL,5545.7338,N,03741.0954,E,090153.000,A,A*4E
 $GNRMC,090154.000,A,5545.7338,N,03741.0954,E,0.00,288.31,111122,,,A*7E
 $GPVTG,288.31,T,,M,0.00,N,0.00,K,A*3D
 $GPGGA,090154.000,5545.7338,N,03741.0954,E,1,4,3.28,211.6,M,14.4,M,,*5A
 $GNGSA,A,3,03,31,16,26,,,,,,,,,3.42,3.28,0.98*13
 $GNGSA,A,3,,,,,,,,,,,,,3.42,3.28,0.98*11
 $GPGSV,3,1,10,04,86,104,,09,53,262,,03,42,144,29,06,39,285,*70
 $GPGSV,3,2,10,26,29,080,23,11,21,320,,16,19,112,25,31,14,046,20*70
 $GPGSV,3,3,10,07,13,207,,29,02,022,*71
 $GLGSV,3,1,09,70,65,084,,71,55,301,,79,30,034,20,87,29,325,*6A
 $GLGSV,3,2,09,73,21,164,13,72,08,288,,69,06,101,,88,04,005,*6C
 $GLGSV,3,3,09,85,01,221,*51
 $GNGLL,5545.7338,N,03741.0954,E,090154.000,A,A*49
 $GNRMC,090155.000,A,5545.7338,N,03741.0954,E,0.00,288.31,111122,,,A*7F
 $GPVTG,288.31,T,,M,0.00,N,0.00,K,A*3D
 $GPGGA,090155.000,5545.7338,N,03741.0954,E,1,4,3.27,211.6,M,14.4,M,,*54
 $GNGSA,A,3,03,31,16,26,,,,,,,,,3.42,3.27,0.98*1C
 $GNGSA,A,3,,,,,,,,,,,,,3.42,3.27,0.98*1E
 $GPGSV,3,1,10,04,86,104,,09,53,262,,03,42,144,29,06,39,285,*70
 $GPGSV,3,2,10,26,29,080,22,11,21,320,,16,19,112,25,31,14,046,19*7B
 $GPGSV,3,3,10,07,13,207,,29,02,022,*71
 $GLGSV,3,1,09,70,65,084,,71,55,301,,79,30,034,20,87,29,325,*6A
 $GLGSV,3,2,09,73,21,164,13,72,08,288,,69,06,101,,88,04,005,*6C
 $GLGSV,3,3,09,85,01,221,*51
 $GNGLL,5545.7338,N,03741.0954,E,090155.000,A,A*48
 $GNRMC,090156.000,A,5545.7338,N,03741.0954,E,0.00,288.31,111122,,,A*7C
 $GPVTG,288.31,T,,M,0.00,N,0.00,K,A*3D
 $GPGGA,090156.000,5545.7338,N,03741.0954,E,1,4,3.28,211.6,M,14.4,M,,*58
 $GNGSA,A,3,03,31,16,26,,,,,,,,,3.42,3.28,0.98*13
 $GNGSA,A,3,,,,,,,,,,,,,3.42,3.28,0.98*11
 $GPGSV,3,1,10,04,86,104,,09,53,262,,03,42,144,29,06,39,285,*70
 $GPGSV,3,2,10,26,29,080,22,11,21,320,,16,19,112,25,31,14,046,19*7B
 $GPGSV,3,3,10,07,13,207,,29,02,022,*71
 $GLGSV,3,1,09,70,65,084,,71,55,301,,79,30,034,20,87,29,325,*6A
 $GLGSV,3,2,09,73,21,164,13,72,08,288,,69,06,101,,88,04,005,*6C
 $GLGSV,3,3,09,85,01,221,*51
 $GNGLL,5545.7338,N,03741.0954,E,090156.000,A,A*4B
 $GNRMC,090157.000,A,5545.7336,N,03741.0953,E,0.88,108.31,111122,,,A*7F
 $GPVTG,108.31,T,,M,0.88,N,1.64,K,A*35
 $GPGGA,090157.000,5545.7336,N,03741.0953,E,1,4,3.27,211.8,M,14.4,M,,*51
 $GNGSA,A,3,03,31,16,26,,,,,,,,,3.42,3.27,0.98*1C
 $GNGSA,A,3,,,,,,,,,,,,,3.42,3.27,0.98*1E
 $GPGSV,3,1,10,04,86,104,,09,53,262,,03,42,144,29,06,39,285,*70
 $GPGSV,3,2,10,26,29,080,22,11,21,320,,16,19,112,25,31,14,046,19*7B
 $GPGSV,3,3,10,07,13,207,,29,02,022,*71
 $GLGSV,3,1,09,70,65,084,,71,55,301,,79,30,034,19,87,29,325,*60
 $GLGSV,3,2,09,73,21,164,13,72,08,288,,69,06,101,,88,04,005,*6C
 $GLGSV,3,3,09,85,01,221,*51
 $GNGLL,5545.7336,N,03741.0953,E,090157.000,A,A*43
 $GNRMC,090158.000,A,5545.7334,N,03741.0945,E,0.00,108.31,111122,,,A*75
 $GPVTG,108.31,T,,M,0.00,N,0.00,K,A*36
 $GPGGA,090158.000,5545.7334,N,03741.0945,E,1,4,3.27,211.8,M,14.4,M,,*5B
 $GNGSA,A,3,03,31,16,26,,,,,,,,,3.42,3.27,0.98*1C
 $GNGSA,A,3,,,,,,,,,,,,,3.42,3.27,0.98*1E
 $GPGSV,3,1,10,04,86,104,,09,53,262,,03,42,144,29,06,39,285,*70
 $GPGSV,3,2,10,26,29,080,22,11,21,320,,16,19,112,26,31,14,046,19*78
 $GPGSV,3,3,10,07,13,207,,29,02,022,*71
 $GLGSV,3,1,09,70,65,084,,71,55,301,,79,29,033,19,87,29,325,*6F
 $GLGSV,3,2,09,73,21,164,13,72,08,288,,69,06,101,,88,04,005,*6C
 $GLGSV,3,3,09,85,01,221,*51
 $GNGLL,5545.7334,N,03741.0945,E,090158.000,A,A*49
 $GNRMC,090159.000,A,5545.7332,N,03741.0941,E,0.00,108.31,111122,,,A*76
 $GPVTG,108.31,T,,M,0.00,N,0.00,K,A*36
 $GPGGA,090159.000,5545.7332,N,03741.0941,E,1,4,3.28,211.8,M,14.4,M,,*57
 $GNGSA,A,3,03,31,16,26,,,,,,,,,3.42,3.28,0.98*13
 $GNGSA,A,3,,,,,,,,,,,,,3.42,3.28,0.98*11
 $GPGSV,3,1,10,04,86,104,,09,53,262,,03,42,144,29,06,39,285,*70
 $GPGSV,3,2,10,26,29,080,22,11,21,320,,16,19,112,26,31,14,046,18*79
 $GPGSV,3,3,10,07,13,207,,29,02,022,*71
 $GLGSV,3,1,09,70,65,084,,71,55,301,,79,29,033,18,87,29,325,*6E
 $GLGSV,3,2,09,73,21,164,13,72,08,288,,69,06,101,,88,04,005,*6C
 $GLGSV,3,3,09,85,01,221,*51
 $GNGLL,5545.7332,N,03741.0941,E,090159.000,A,A*4A
 $GNRMC,090200.000,A,5545.7330,N,03741.0935,E,0.00,125.92,111122,,,A*7E
 $GPVTG,125.92,T,,M,0.00,N,0.00,K,A*30
 $GPGGA,090200.000,5545.7330,N,03741.0935,E,1,4,3.27,211.8,M,14.4,M,,*56
 $GNGSA,A,3,03,31,16,26,,,,,,,,,3.42,3.27,0.98*1C
 $GNGSA,A,3,,,,,,,,,,,,,3.42,3.27,0.98*1E
 $GPGSV,3,1,10,04,86,104,,09,53,262,,03,42,144,29,06,39,285,*70
 $GPGSV,3,2,10,26,29,080,22,11,21,320,,16,19,112,26,31,14,046,18*79
 $GPGSV,3,3,10,07,13,207,,29,02,022,*71
 $GLGSV,3,1,09,70,65,084,,71,55,301,,79,29,033,18,87,29,325,*6E
 $GLGSV,3,2,09,73,21,164,14,72,08,288,,69,06,101,,88,04,005,*6B
 $GLGSV,3,3,09,85,01,221,*51
 $GNGLL,5545.7330,N,03741.0935,E,090200.000,A,A*44
 $GNRMC,090201.000,A,5545.7330,N,03741.0935,E,0.00,125.92,111122,,,A*7F
 $GPVTG,125.92,T,,M,0.00,N,0.00,K,A*30
 $GPGGA,090201.000,5545.7330,N,03741.0935,E,1,4,3.28,211.8,M,14.4,M,,*58
 $GNGSA,A,3,03,31,16,26,,,,,,,,,3.42,3.28,0.98*13
 $GNGSA,A,3,,,,,,,,,,,,,3.42,3.28,0.98*11
 $GPGSV,3,1,10,04,86,104,,09,53,262,,03,42,144,29,06,39,285,*70
 $GPGSV,3,2,10,26,29,080,22,11,21,320,,16,19,112,26,31,14,046,18*79
 $GPGSV,3,3,10,07,13,207,,29,02,022,*71
 $GLGSV,3,1,09,70,65,084,,71,55,301,,79,29,033,18,87,29,325,*6E
 $GLGSV,3,2,09,73,21,164,14,72,08,288,,69,06,101,,88,04,005,*6B
 $GLGSV,3,3,09,85,01,221,*51
 $GNGLL,5545.7330,N,03741.0935,E,090201.000,A,A*45
 $GNRMC,090202.000,A,5545.7330,N,03741.0935,E,0.00,125.92,111122,,,A*7C
 $GPVTG,125.92,T,,M,0.00,N,0.00,K,A*30
 $GPGGA,090202.000,5545.7330,N,03741.0935,E,1,4,3.28,211.8,M,14.4,M,,*5B
 $GNGSA,A,3,03,31,16,26,,,,,,,,,3.42,3.28,0.98*13
 $GNGSA,A,3,,,,,,,,,,,,,3.42,3.28,0.98*11
 $GPGSV,3,1,10,04,86,104,,09,53,262,,03,42,144,29,06,39,285,*70
 $GPGSV,3,2,10,26,29,080,22,11,21,320,,16,19,112,26,31,14,046,18*79
 $GPGSV,3,3,10,07,13,207,,29,02,022,*71
 $GLGSV,3,1,09,70,65,084,,71,55,301,,79,29,033,18,87,29,325,*6E
 $GLGSV,3,2,09,73,21,164,14,72,08,288,,69,06,101,,88,04,005,*6B
 $GLGSV,3,3,09,85,01,221,*51
 $GNGLL,5545.7330,N,03741.0935,E,090202.000,A,A*46
 $GNRMC,090203.000,A,5545.7321,N,03741.0926,E,0.86,166.83,111122,,,A*76
 $GPVTG,166.83,T,,M,0.86,N,1.59,K,A*34
 $GPGGA,090203.000,5545.7321,N,03741.0926,E,1,4,3.28,211.8,M,14.4,M,,*58
 $GNGSA,A,3,03,31,16,26,,,,,,,,,3.42,3.28,0.98*13
 $GNGSA,A,3,,,,,,,,,,,,,3.42,3.28,0.98*11
 $GPGSV,3,1,10,04,86,104,,09,53,262,,03,42,144,29,06,39,285,*70
 $GPGSV,3,2,10,26,29,080,22,11,21,320,,16,19,112,26,31,14,046,18*79
 $GPGSV,3,3,10,07,13,207,,29,02,022,*71
 $GLGSV,3,1,09,70,65,084,,71,55,301,,79,29,033,18,87,29,325,*6E
 $GLGSV,3,2,09,73,21,164,14,72,08,288,,69,06,101,,88,04,005,*6B
 $GLGSV,3,3,09,85,01,221,*51
 $GNGLL,5545.7321,N,03741.0926,E,090203.000,A,A*45
 $GNRMC,090204.000,A,5545.7322,N,03741.0913,E,0.00,166.83,111122,,,A*7A
 $GPVTG,166.83,T,,M,0.00,N,0.00,K,A*37
 $GPGGA,090204.000,5545.7322,N,03741.0913,E,1,4,3.28,211.8,M,14.4,M,,*5A
 $GNGSA,A,3,03,31,16,26,,,,,,,,,3.42,3.28,0.98*13
 $GNGSA,A,3,,,,,,,,,,,,,3.42,3.28,0.98*11
 $GPGSV,3,1,10,04,86,104,,09,53,262,,03,42,144,29,06,39,285,*70
 $GPGSV,3,2,10,26,29,080,21,11,21,320,,16,19,112,26,31,14,046,18*7A
 $GPGSV,3,3,10,07,13,207,,29,02,022,*71
 $GLGSV,2,1,08,70,65,084,,71,55,301,,79,29,033,18,87,29,325,*6E
 $GLGSV,2,2,08,73,21,164,14,72,08,288,,69,06,101,,88,04,005,*6B
 $GNGLL,5545.7322,N,03741.0913,E,090204.000,A,A*47
 $GNRMC,090205.000,A,5545.7325,N,03741.0904,E,0.00,166.83,111122,,,A*7A
 $GPVTG,166.83,T,,M,0.00,N,0.00,K,A*37
 $GPGGA,090205.000,5545.7325,N,03741.0904,E,1,4,3.28,211.8,M,14.4,M,,*5A
 $GNGSA,A,3,03,31,16,26,,,,,,,,,3.42,3.28,0.98*13
 $GNGSA,A,3,,,,,,,,,,,,,3.42,3.28,0.98*11
 $GPGSV,3,1,10,04,86,104,,09,53,262,,03,42,144,29,06,39,285,*70
 $GPGSV,3,2,10,26,29,080,21,11,21,320,,16,19,112,26,31,14,046,18*7A
 $GPGSV,3,3,10,07,13,207,,29,02,022,*71
 $GLGSV,2,1,08,70,65,084,,71,55,301,,79,29,033,18,87,29,325,*6E
 $GLGSV,2,2,08,73,21,164,14,72,08,288,,69,06,101,,88,04,005,*6B
 $GNGLL,5545.7325,N,03741.0904,E,090205.000,A,A*47
 $GNRMC,090206.000,A,5545.7327,N,03741.0893,E,0.00,166.83,111122,,,A*74
 $GPVTG,166.83,T,,M,0.00,N,0.00,K,A*37
 $GPGGA,090206.000,5545.7327,N,03741.0893,E,1,4,3.28,211.8,M,14.4,M,,*54
 $GNGSA,A,3,03,31,16,26,,,,,,,,,3.42,3.28,0.98*13
 $GNGSA,A,3,,,,,,,,,,,,,3.42,3.28,0.98*11
 $GPGSV,3,1,10,04,86,104,,09,53,262,,03,42,144,29,06,39,285,*70
 $GPGSV,3,2,10,26,29,080,20,11,21,320,,16,19,112,26,31,14,046,18*7B
 $GPGSV,3,3,10,07,13,207,,29,02,022,*71
 $GLGSV,2,1,08,70,65,084,,71,55,301,,79,29,033,18,87,29,325,*6E
 $GLGSV,2,2,08,73,21,164,14,72,08,288,,69,06,101,,88,04,005,*6B
 $GNGLL,5545.7327,N,03741.0893,E,090206.000,A,A*49
 $GNRMC,090207.000,A,5545.7327,N,03741.0893,E,0.00,166.83,111122,,,A*75
 $GPVTG,166.83,T,,M,0.00,N,0.00,K,A*37
 $GPGGA,090207.000,5545.7327,N,03741.0893,E,1,4,3.28,211.8,M,14.4,M,,*55
 $GNGSA,A,3,03,31,16,26,,,,,,,,,3.42,3.28,0.98*13
 $GNGSA,A,3,,,,,,,,,,,,,3.42,3.28,0.98*11
 $GPGSV,3,1,10,04,86,104,,09,53,262,,03,42,144,29,06,39,285,*70
 $GPGSV,3,2,10,26,29,080,20,11,21,320,,16,19,112,26,31,14,046,18*7B
 $GPGSV,3,3,10,07,13,207,,29,02,022,*71
 $GLGSV,2,1,08,70,65,084,,71,55,301,,79,29,033,18,87,29,325,*6E
 $GLGSV,2,2,08,73,21,164,14,72,08,288,,69,06,101,,88,04,005,*6B
 $GNGLL,5545.7327,N,03741.0893,E,090207.000,A,A*48
 $GNRMC,090208.000,A,5545.7327,N,03741.0893,E,0.00,166.83,111122,,,A*7A
 $GPVTG,166.83,T,,M,0.00,N,0.00,K,A*37
 $GPGGA,090208.000,5545.7327,N,03741.0893,E,1,4,3.28,211.8,M,14.4,M,,*5A
 $GNGSA,A,3,03,31,16,26,,,,,,,,,3.42,3.28,0.98*13
 $GNGSA,A,3,,,,,,,,,,,,,3.42,3.28,0.98*11
 $GPGSV,3,1,10,04,86,104,,09,53,262,,03,42,144,29,06,39,285,*70
 $GPGSV,3,2,10,26,29,080,20,11,21,320,,16,19,112,26,31,14,046,18*7B
 $GPGSV,3,3,10,07,13,207,,29,02,022,*71
 $GLGSV,2,1,08,70,65,084,,71,55,301,,79,29,033,18,87,29,325,*6E
 $GLGSV,2,2,08,73,21,164,13,72,08,288,,69,06,101,,88,04,005,*6C
 $GNGLL,5545.7327,N,03741.0893,E,090208.000,A,A*47
 $GNRMC,090209.000,A,5545.7331,N,03741.0884,E,1.14,308.26,111122,,,A*7B
 $GPVTG,308.26,T,,M,1.14,N,2.11,K,A*34
 $GPGGA,090209.000,5545.7331,N,03741.0884,E,1,4,3.28,211.8,M,14.4,M,,*5A
 $GNGSA,A,3,03,31,16,26,,,,,,,,,3.42,3.28,0.98*13
 $GNGSA,A,3,,,,,,,,,,,,,3.42,3.28,0.98*11
 $GPGSV,3,1,10,04,86,104,,09,53,262,,03,42,144,29,06,39,285,*70
 $GPGSV,3,2,10,26,29,080,20,11,21,320,,16,19,112,26,31,14,046,19*7A
 $GPGSV,3,3,10,07,13,207,,29,02,022,*71
 $GLGSV,2,1,08,70,65,084,,71,55,301,,79,29,033,18,87,29,325,*6E
 $GLGSV,2,2,08,73,21,164,14,72,08,288,,69,06,101,,88,04,005,*6B
 $GNGLL,5545.7331,N,03741.0884,E,090209.000,A,A*47
 $GNRMC,090210.000,A,5545.7327,N,03741.0889,E,0.79,297.99,111122,,,A*70
 $GPVTG,297.99,T,,M,0.79,N,1.46,K,A*3C
 $GPGGA,090210.000,5545.7327,N,03741.0889,E,1,4,3.28,211.8,M,14.4,M,,*58
 $GNGSA,A,3,03,31,16,26,,,,,,,,,3.42,3.28,0.98*13
 $GNGSA,A,3,,,,,,,,,,,,,3.42,3.28,0.98*11
 $GPGSV,3,1,10,04,86,104,,09,53,262,,03,41,144,29,06,39,285,*73
 $GPGSV,3,2,10,26,29,080,20,11,21,320,,16,19,112,26,31,14,046,19*7A
 $GPGSV,3,3,10,07,13,207,,29,02,022,*71
 $GLGSV,2,1,08,70,65,084,,71,55,301,,79,29,033,18,87,29,325,*6E
 $GLGSV,2,2,08,73,21,164,14,72,08,288,,69,06,101,,88,04,005,*6B
 $GNGLL,5545.7327,N,03741.0889,E,090210.000,A,A*45
 $GNRMC,090211.000,A,5545.7316,N,03741.0905,E,0.00,297.99,111122,,,A*78
 $GPVTG,297.99,T,,M,0.00,N,0.00,K,A*31
 $GPGGA,090211.000,5545.7316,N,03741.0905,E,1,4,3.28,211.8,M,14.4,M,,*5E
 $GNGSA,A,3,03,31,16,26,,,,,,,,,3.42,3.28,0.98*13
 $GNGSA,A,3,,,,,,,,,,,,,3.42,3.28,0.98*11
 $GPGSV,3,1,10,04,86,101,,09,53,262,,03,41,144,29,06,39,285,*76
 $GPGSV,3,2,10,26,29,080,20,11,21,320,,16,19,112,26,31,14,046,20*70
 $GPGSV,3,3,10,07,13,207,,29,02,022,*71
 $GLGSV,2,1,08,70,65,084,,71,55,301,,79,29,033,18,87,29,325,*6E
 $GLGSV,2,2,08,73,21,164,14,72,08,288,,69,06,101,,88,04,005,*6B
 $GNGLL,5545.7316,N,03741.0905,E,090211.000,A,A*43
 $GNRMC,090212.000,A,5545.7317,N,03741.0903,E,0.00,297.99,111122,,,A*7C
 $GPVTG,297.99,T,,M,0.00,N,0.00,K,A*31
 $GPGGA,090212.000,5545.7317,N,03741.0903,E,1,4,3.28,211.8,M,14.4,M,,*5A
 $GNGSA,A,3,03,31,16,26,,,,,,,,,3.42,3.28,0.98*13
 $GNGSA,A,3,,,,,,,,,,,,,3.42,3.28,0.98*11
 $GPGSV,3,1,10,04,86,101,,09,53,262,,03,41,144,29,06,39,285,*76
 $GPGSV,3,2,10,26,29,080,20,11,21,320,,16,19,112,26,31,14,046,21*71
 $GPGSV,3,3,10,07,13,207,,29,02,022,*71
 $GLGSV,2,1,08,70,65,084,,71,55,301,,79,29,033,18,87,29,325,*6E
 $GLGSV,2,2,08,73,21,164,13,72,08,288,,69,06,101,,88,04,005,*6C
 $GNGLL,5545.7317,N,03741.0903,E,090212.000,A,A*47
 $GNRMC,090213.000,A,5545.7314,N,03741.0905,E,0.00,297.99,111122,,,A*78
 $GPVTG,297.99,T,,M,0.00,N,0.00,K,A*31
 $GPGGA,090213.000,5545.7314,N,03741.0905,E,1,4,3.28,211.8,M,14.4,M,,*5E
 $GNGSA,A,3,03,31,16,26,,,,,,,,,3.42,3.28,0.98*13
 $GNGSA,A,3,,,,,,,,,,,,,3.42,3.28,0.98*11
 $GPGSV,3,1,10,04,86,101,,09,53,262,,03,41,144,29,06,39,284,*77
 $GPGSV,3,2,10,26,29,080,20,11,21,320,,16,19,112,26,31,14,046,22*72
 $GPGSV,3,3,10,07,13,207,,29,02,022,*71
 $GLGSV,2,1,08,70,65,084,,71,55,301,,79,29,033,18,87,29,325,*6E
 $GLGSV,2,2,08,73,21,164,13,72,08,288,,69,06,101,,88,04,005,*6C
 $GNGLL,5545.7314,N,03741.0905,E,090213.000,A,A*43
 $GNRMC,090214.000,A,5545.7314,N,03741.0905,E,0.00,297.99,111122,,,A*7F
 $GPVTG,297.99,T,,M,0.00,N,0.00,K,A*31
 $GPGGA,090214.000,5545.7314,N,03741.0905,E,1,4,3.28,211.8,M,14.4,M,,*59
 $GNGSA,A,3,03,31,16,26,,,,,,,,,3.42,3.28,0.98*13
 $GNGSA,A,3,,,,,,,,,,,,,3.42,3.28,0.98*11
 $GPGSV,3,1,10,04,86,101,,09,53,262,,03,41,144,29,06,39,284,*77
 $GPGSV,3,2,10,26,29,080,20,11,21,320,,16,19,112,26,31,14,046,22*72
 $GPGSV,3,3,10,07,13,208,,29,02,022,*7E
 $GLGSV,2,1,08,70,65,084,,71,55,301,,79,29,033,19,87,29,325,*6F
 $GLGSV,2,2,08,73,21,164,14,72,08,288,,69,06,101,,88,04,005,*6B
 $GNGLL,5545.7314,N,03741.0905,E,090214.000,A,A*44
 $GNRMC,090215.000,A,5545.7314,N,03741.0905,E,0.00,297.99,111122,,,A*7E
 $GPVTG,297.99,T,,M,0.00,N,0.00,K,A*31
 $GPGGA,090215.000,5545.7314,N,03741.0905,E,1,4,3.28,211.8,M,14.4,M,,*58
 $GNGSA,A,3,03,31,16,26,,,,,,,,,3.43,3.28,0.98*12
 $GNGSA,A,3,,,,,,,,,,,,,3.43,3.28,0.98*10
 $GPGSV,3,1,10,04,86,101,,09,53,262,,03,41,144,29,06,39,284,*77
 $GPGSV,3,2,10,26,29,080,20,11,21,320,,16,19,112,26,31,14,046,22*72
 $GPGSV,3,3,10,07,13,208,,29,02,022,*7E
 $GLGSV,2,1,08,70,65,084,,71,55,301,,79,29,033,19,87,29,325,*6F
 $GLGSV,2,2,08,73,21,164,14,72,08,288,,69,06,101,,88,04,005,*6B
 $GNGLL,5545.7314,N,03741.0905,E,090215.000,A,A*45
 $GNRMC,090216.000,A,5545.7314,N,03741.0905,E,0.00,297.99,111122,,,A*7D
 $GPVTG,297.99,T,,M,0.00,N,0.00,K,A*31
 $GPGGA,090216.000,5545.7314,N,03741.0905,E,1,4,3.28,211.8,M,14.4,M,,*5B
 $GNGSA,A,3,03,31,16,26,,,,,,,,,3.43,3.28,0.98*12
 $GNGSA,A,3,,,,,,,,,,,,,3.43,3.28,0.98*10
 $GPGSV,3,1,10,04,86,101,,09,54,262,,03,41,144,29,06,39,284,*70
 $GPGSV,3,2,10,26,29,080,20,11,21,320,,16,19,112,26,31,14,046,23*73
 $GPGSV,3,3,10,07,13,208,,29,02,022,*7E
 $GLGSV,2,1,08,70,65,084,,71,55,301,,79,29,033,19,87,29,325,*6F
 $GLGSV,2,2,08,73,21,164,14,72,08,288,,69,06,101,,88,04,005,*6B
 $GNGLL,5545.7314,N,03741.0905,E,090216.000,A,A*46
 $GNRMC,090217.000,A,5545.7314,N,03741.0905,E,0.00,297.99,111122,,,A*7C
 $GPVTG,297.99,T,,M,0.00,N,0.00,K,A*31
 $GPGGA,090217.000,5545.7314,N,03741.0905,E,1,4,3.28,211.8,M,14.4,M,,*5A
 $GNGSA,A,3,03,31,16,26,,,,,,,,,3.43,3.28,0.98*12
 $GNGSA,A,3,,,,,,,,,,,,,3.43,3.28,0.98*10
 $GPGSV,3,1,10,04,86,101,,09,54,262,,03,41,144,29,06,39,284,*70
 $GPGSV,3,2,10,26,29,080,20,11,21,320,,16,19,112,26,31,14,046,23*73
 $GPGSV,3,3,10,07,13,208,,29,02,022,*7E
 $GLGSV,2,1,08,70,65,084,,71,55,301,,79,29,033,19,87,29,325,*6F
 $GLGSV,2,2,08,73,21,164,14,72,08,288,,69,06,101,,88,04,005,*6B
 $GNGLL,5545.7314,N,03741.0905,E,090217.000,A,A*47
 $GNRMC,090218.000,A,5545.7314,N,03741.0905,E,0.00,297.99,111122,,,A*73
 $GPVTG,297.99,T,,M,0.00,N,0.00,K,A*31
 $GPGGA,090218.000,5545.7314,N,03741.0905,E,1,4,3.28,211.8,M,14.4,M,,*55
 $GNGSA,A,3,03,31,16,26,,,,,,,,,3.43,3.28,0.98*12
 $GNGSA,A,3,,,,,,,,,,,,,3.43,3.28,0.98*10
 $GPGSV,3,1,10,04,86,101,,09,54,262,,03,41,144,29,06,39,284,*70
 $GPGSV,3,2,10,26,29,080,20,11,21,320,,16,19,112,25,31,14,046,24*77
 $GPGSV,3,3,10,07,13,208,,29,02,022,*7E
 $GLGSV,2,1,08,70,65,084,,71,55,301,,79,29,033,19,87,29,325,*6F
 $GLGSV,2,2,08,73,21,164,14,72,08,288,,69,06,101,,88,04,005,*6B
 $GNGLL,5545.7314,N,03741.0905,E,090218.000,A,A*48
 $GNRMC,090219.000,A,5545.7314,N,03741.0905,E,0.00,297.99,111122,,,A*72
 $GPVTG,297.99,T,,M,0.00,N,0.00,K,A*31
 $GPGGA,090219.000,5545.7314,N,03741.0905,E,1,4,3.28,211.8,M,14.4,M,,*54
 $GNGSA,A,3,03,31,16,26,,,,,,,,,3.43,3.28,0.98*12
 $GNGSA,A,3,,,,,,,,,,,,,3.43,3.28,0.98*10
 $GPGSV,3,1,10,04,86,101,,09,54,262,,03,41,144,29,06,39,284,*70
 $GPGSV,3,2,10,26,29,080,19,11,21,320,,16,19,112,25,31,14,046,24*7D
 $GPGSV,3,3,10,07,13,208,,29,02,022,*7E
 $GLGSV,2,1,08,70,65,084,,71,55,301,,79,29,033,19,87,29,325,*6F
 $GLGSV,2,2,08,73,21,164,14,72,08,288,,69,06,101,,88,04,005,*6B
 $GNGLL,5545.7314,N,03741.0905,E,090219.000,A,A*49
 $GNRMC,090220.000,A,5545.7314,N,03741.0905,E,0.00,297.99,111122,,,A*78
 $GPVTG,297.99,T,,M,0.00,N,0.00,K,A*31
 $GPGGA,090220.000,5545.7314,N,03741.0905,E,1,4,3.29,211.8,M,14.4,M,,*5F
 $GNGSA,A,3,03,31,16,26,,,,,,,,,3.43,3.29,0.98*13
 $GNGSA,A,3,,,,,,,,,,,,,3.43,3.29,0.98*11
 $GPGSV,3,1,10,04,86,101,,09,54,262,,03,41,144,29,06,39,284,*70
 $GPGSV,3,2,10,26,29,080,19,11,21,320,,16,19,112,24,31,14,046,24*7C
 $GPGSV,3,3,10,07,13,208,,29,02,022,*7E
 $GLGSV,2,1,08,70,65,084,,71,55,301,,79,29,033,19,87,29,325,*6F
 $GLGSV,2,2,08,73,21,164,14,72,08,288,,69,06,101,,88,04,005,*6B
 $GNGLL,5545.7314,N,03741.0905,E,090220.000,A,A*43
 $GNRMC,090221.000,A,5545.7314,N,03741.0905,E,0.00,297.99,111122,,,A*79
 $GPVTG,297.99,T,,M,0.00,N,0.00,K,A*31
 $GPGGA,090221.000,5545.7314,N,03741.0905,E,1,4,3.28,211.8,M,14.4,M,,*5F
 $GNGSA,A,3,03,31,16,26,,,,,,,,,3.43,3.28,0.98*12
 $GNGSA,A,3,,,,,,,,,,,,,3.43,3.28,0.98*10
 $GPGSV,3,1,10,04,86,101,,09,54,262,,03,41,144,29,06,39,284,*70
 $GPGSV,3,2,10,26,29,080,19,11,21,320,,16,19,112,23,31,14,046,25*7A
 $GPGSV,3,3,10,07,13,208,,29,02,022,*7E
 $GLGSV,2,1,08,70,65,084,,71,55,301,,79,29,033,19,87,29,325,*6F
 $GLGSV,2,2,08,73,21,164,14,72,08,288,,69,06,101,,88,04,005,*6B
 $GNGLL,5545.7314,N,03741.0905,E,090221.000,A,A*42
 $GNRMC,090222.000,A,5545.7314,N,03741.0905,E,0.00,297.99,111122,,,A*7A
 $GPVTG,297.99,T,,M,0.00,N,0.00,K,A*31
 $GPGGA,090222.000,5545.7314,N,03741.0905,E,1,4,3.29,211.8,M,14.4,M,,*5D
 $GNGSA,A,3,03,31,16,26,,,,,,,,,3.43,3.29,0.98*13
 $GNGSA,A,3,,,,,,,,,,,,,3.43,3.29,0.98*11
 $GPGSV,3,1,10,04,86,101,,09,54,262,,03,41,144,30,06,39,284,*78
 $GPGSV,3,2,10,26,29,080,19,11,21,320,,16,19,112,23,31,14,046,25*7A
 $GPGSV,3,3,10,07,13,208,,29,02,022,*7E
 $GLGSV,2,1,08,70,65,084,,71,55,301,,79,29,033,18,87,29,325,*6E
 $GLGSV,2,2,08,73,21,164,14,72,08,288,,69,06,101,,88,04,005,*6B
 $GNGLL,5545.7314,N,03741.0905,E,090222.000,A,A*41
 $GNRMC,090223.000,A,5545.7314,N,03741.0905,E,0.00,297.99,111122,,,A*7B
 $GPVTG,297.99,T,,M,0.00,N,0.00,K,A*31
 $GPGGA,090223.000,5545.7314,N,03741.0905,E,1,4,3.28,211.8,M,14.4,M,,*5D
 $GNGSA,A,3,03,31,16,26,,,,,,,,,3.43,3.28,0.98*12
 $GNGSA,A,3,,,,,,,,,,,,,3.43,3.28,0.98*10
 $GPGSV,3,1,10,04,86,101,,09,54,262,,03,41,144,30,06,39,284,*78
 $GPGSV,3,2,10,26,29,080,18,11,21,320,,16,19,112,23,31,14,046,25*7B
 $GPGSV,3,3,10,07,13,208,,29,02,022,*7E
 $GLGSV,2,1,08,70,65,084,,71,55,301,,79,29,033,18,87,29,325,*6E
 $GLGSV,2,2,08,73,21,164,15,72,08,288,,69,06,101,,88,04,005,*6A
 $GNGLL,5545.7314,N,03741.0905,E,090223.000,A,A*40
 $GNRMC,090224.000,A,5545.7344,N,03741.0870,E,0.84,291.72,111122,,,A*75
 $GPVTG,291.72,T,,M,0.84,N,1.56,K,A*3C
 $GPGGA,090224.000,5545.7344,N,03741.0870,E,1,4,3.29,211.8,M,14.4,M,,*5D
 $GNGSA,A,3,03,31,16,26,,,,,,,,,3.43,3.29,0.98*13
 $GNGSA,A,3,,,,,,,,,,,,,3.43,3.29,0.98*11
 $GPGSV,3,1,10,04,86,101,,09,54,262,,03,41,144,30,06,39,284,*78
 $GPGSV,3,2,10,26,29,080,18,11,21,320,,16,19,112,23,31,14,046,25*7B
 $GPGSV,3,3,10,07,13,208,,29,02,022,*7E
 $GLGSV,2,1,08,70,65,084,,71,55,301,,79,7
 $GNGSA,A,3,04,03,31,16,26,,,,,,,,2.20,1.97,0.97*1B
 $GNGSA,A,3,,,,,,,,,,,,,2.20,1.97,0.97*1D
 $GPGSV,3,1,10,04,86,101,15,09,54,262,,03,41,144,30,06,39,284,*7C
 $GPGSV,3,2,10,26,29,080,20,11,21,320,,16,19,112,23,31,14,046,25*70
 $GPGSV,3,3,10,07,13,208,,29,02,022,*7E
 $GLGSV,2,1,08,70,65,084,,71,55,301,,79,29,033,18,87,29,325,*6E
 $GLGSV,2,2,08,73,21,164,16,72,08,288,,69,06,101,,88,04,005,*69
 $GNGLL,5545.7340,N,03741.0915,E,090230.000,A,A*42
 $GNRMC,090231.000,A,5545.7334,N,03741.0948,E,0.00,118.96,111122,,,A*78
 $GPVTG,118.96,T,,M,0.00,N,0.00,K,A*3A
 $GPGGA,090231.000,5545.7334,N,03741.0948,E,1,5,1.97,211.7,M,14.4,M,,*5D
 $GNGSA,A,3,04,03,31,16,26,,,,,,,,2.20,1.97,0.97*1B
 $GNGSA,A,3,,,,,,,,,,,,,2.20,1.97,0.97*1D
 $GPGSV,3,1,10,04,86,101,15,09,54,262,,03,41,144,30,06,39,284,*7C
 $GPGSV,3,2,10,26,29,080,20,11,21,320,,16,19,112,23,31,14,046,25*70
 $GPGSV,3,3,10,07,13,208,,29,02,022,*7E
 $GLGSV,2,1,08,70,65,084,,71,55,301,,79,29,033,18,87,29,325,*6E
 $GLGSV,2,2,08,73,21,164,16,72,08,288,,69,06,101,,88,04,005,*69
 $GNGLL,5545.7334,N,03741.0948,E,090231.000,A,A*48
 $GNRMC,090232.000,A,5545.7326,N,03741.0996,E,2.46,112.52,111122,,,A*79
 $GPVTG,112.52,T,,M,2.46,N,4.55,K,A*3C
 $GPGGA,090232.000,5545.7326,N,03741.0996,E,1,5,1.97,211.6,M,14.4,M,,*5F
 $GNGSA,A,3,04,03,31,16,26,,,,,,,,2.20,1.97,0.97*1B
 $GNGSA,A,3,,,,,,,,,,,,,2.20,1.97,0.97*1D
 $GPGSV,3,1,10,04,86,101,15,09,54,262,,03,41,144,30,06,39,284,*7C
 $GPGSV,3,2,10,26,29,080,21,11,21,320,,16,19,112,22,31,14,046,24*71
 $GPGSV,3,3,10,07,13,208,,29,02,022,*7E
 $GLGSV,2,1,08,70,65,084,,71,55,301,,79,29,033,18,87,29,325,*6E
 $GLGSV,2,2,08,73,21,164,16,72,08,288,,69,06,101,,88,04,005,*69
 $GNGLL,5545.7326,N,03741.0996,E,090232.000,A,A*4B
 $GNRMC,090233.000,A,5545.7324,N,03741.1025,E,2.47,108.88,111122,,,A*77
 $GPVTG,108.88,T,,M,2.47,N,4.58,K,A*3C
 $GPGGA,090233.000,5545.7324,N,03741.1025,E,1,5,1.97,211.6,M,14.4,M,,*5C
 $GNGSA,A,3,04,03,31,16,26,,,,,,,,2.20,1.97,0.97*1B
 $GNGSA,A,3,,,,,,,,,,,,,2.20,1.97,0.97*1D
 $GPGSV,3,1,10,04,86,101,15,09,54,262,,03,41,144,30,06,39,284,*7C
 $GPGSV,3,2,10,26,29,079,21,11,21,320,,16,19,112,22,31,14,046,24*77
 $GPGSV,3,3,10,07,13,208,,29,02,022,*7E
 $GLGSV,2,1,08,70,65,084,,71,55,301,,79,29,033,19,87,29,325,*6F
 $GLGSV,2,2,08,73,21,164,16,72,08,288,,69,06,101,,88,04,005,*69
 $GNGLL,5545.7324,N,03741.1025,E,090233.000,A,A*48
 $GNRMC,090234.000,A,5545.7319,N,03741.1062,E,2.55,103.45,111122,,,A*74
 $GPVTG,103.45,T,,M,2.55,N,4.72,K,A*3D
 $GPGGA,090234.000,5545.7319,N,03741.1062,E,1,5,1.97,211.6,M,14.4,M,,*56
 $GNGSA,A,3,04,03,31,16,26,,,,,,,,2.20,1.97,0.97*1B
 $GNGSA,A,3,,,,,,,,,,,,,2.20,1.97,0.97*1D
 $GPGSV,3,1,10,04,86,101,14,09,54,262,,03,41,144,29,06,39,284,*75
 $GPGSV,3,2,10,26,29,079,21,11,21,320,,16,19,112,21,31,14,046,20*70
 $GPGSV,3,3,10,07,13,208,,29,02,022,*7E
 $GLGSV,2,1,08,70,65,084,,71,55,301,,79,29,033,19,87,29,325,*6F
 $GLGSV,2,2,08,73,21,164,16,72,08,288,,69,06,101,,88,04,005,*69
 $GNGLL,5545.7319,N,03741.1062,E,090234.000,A,A*42
 $GNRMC,090235.000,A,5545.7314,N,03741.1110,E,3.17,100.90,111122,,,A*70
 $GPVTG,100.90,T,,M,3.17,N,5.88,K,A*35
 $GPGGA,090235.000,5545.7314,N,03741.1110,E,1,5,1.98,211.5,M,14.4,M,,*52
 $GNGSA,A,3,04,03,31,16,26,,,,,,,,2.20,1.98,0.97*14
 $GNGSA,A,3,,,,,,,,,,,,,2.20,1.98,0.97*12
 $GPGSV,3,1,10,04,86,101,15,09,54,262,,03,41,144,29,06,39,284,*74
 $GPGSV,3,2,10,26,29,079,20,11,21,320,,16,19,112,19,31,14,046,19*70
 $GPGSV,3,3,10,07,13,208,,29,02,022,*7E
 $GLGSV,2,1,08,70,65,084,,71,55,301,,79,29,033,19,87,29,325,*6F
 $GLGSV,2,2,08,73,21,164,16,72,08,288,,69,06,101,,88,04,005,*69
 $GNGLL,5545.7314,N,03741.1110,E,090235.000,A,A*4A
 $GNRMC,090236.000,A,5545.7310,N,03741.1144,E,3.25,101.51,111122,,,A*7B
 $GPVTG,101.51,T,,M,3.25,N,6.02,K,A*39
 $GPGGA,090236.000,5545.7310,N,03741.1144,E,1,5,1.97,211.5,M,14.4,M,,*5B
 $GNGSA,A,3,04,03,31,16,26,,,,,,,,2.20,1.97,0.97*1B
 $GNGSA,A,3,,,,,,,,,,,,,2.20,1.97,0.97*1D
 $GPGSV,3,1,10,04,86,101,13,09,54,262,,03,41,144,29,06,39,284,*72
 $GPGSV,3,2,10,26,29,079,20,11,21,320,,16,19,112,18,31,14,046,19*71
 $GPGSV,3,3,10,07,13,208,,29,02,021,*7D
 $GLGSV,2,1,08,70,65,084,,71,55,301,,79,29,033,19,87,29,325,*6F
 $GLGSV,2,2,08,73,21,164,16,72,08,288,,69,06,101,,88,04,005,*69
 $GNGLL,5545.7310,N,03741.1144,E,090236.000,A,A*4C
 $GNRMC,090237.000,A,5545.7310,N,03741.1147,E,3.05,102.51,111122,,,A*78
 $GPVTG,102.51,T,,M,3.05,N,5.65,K,A*3A
 $GPGGA,090237.000,5545.7310,N,03741.1147,E,1,5,1.97,211.4,M,14.4,M,,*58
 $GNGSA,A,3,04,03,31,16,26,,,,,,,,2.20,1.97,0.97*1B
 $GNGSA,A,3,,,,,,,,,,,,,2.20,1.97,0.97*1D
 $GPGSV,3,1,10,04,86,101,14,09,54,262,,03,41,144,28,06,39,284,*74
 $GPGSV,3,2,10,26,29,079,20,11,21,320,,16,19,112,12,31,14,046,20*71
 $GPGSV,3,3,10,07,13,208,,29,02,021,*7D
 $GLGSV,2,1,08,70,65,084,,71,55,301,,79,29,033,19,87,29,325,*6F
 $GLGSV,2,2,08,73,21,164,15,72,08,288,,69,06,101,,88,04,005,*6A
 $GNGLL,5545.7310,N,03741.1147,E,090237.000,A,A*4E
 $GNRMC,090238.000,A,5545.7312,N,03741.1147,E,2.58,94.40,111122,,,A*42
 $GPVTG,94.40,T,,M,2.58,N,4.79,K,A*01
 $GPGGA,090238.000,5545.7312,N,03741.1147,E,1,5,1.97,211.4,M,14.4,M,,*55
 $GNGSA,A,3,04,03,31,16,26,,,,,,,,2.20,1.97,0.97*1B
 $GNGSA,A,3,,,,,,,,,,,,,2.20,1.97,0.97*1D
 $GPGSV,3,1,10,04,86,101,14,09,54,262,,03,41,144,28,06,39,284,*74
 $GPGSV,3,2,10,26,29,079,20,11,21,320,,16,19,112,13,07,13,208,*78
 $GPGSV,3,3,10,31,13,046,18,29,02,021,*79
 $GLGSV,2,1,08,70,65,084,,71,55,301,,79,29,033,19,87,29,325,*6F
 $GLGSV,2,2,08,73,21,164,15,72,08,288,,69,06,101,,88,04,005,*6A
 $GNGLL,5545.7312,N,03741.1147,E,090238.000,A,A*43
 $GNRMC,090239.000,A,5545.7309,N,03741.1176,E,2.87,95.24,111122,,,A*4A
 $GPVTG,95.24,T,,M,2.87,N,5.32,K,A*0E
 $GPGGA,090239.000,5545.7309,N,03741.1176,E,1,5,1.97,211.4,M,14.4,M,,*5C
 $GNGSA,A,3,04,03,31,16,26,,,,,,,,2.20,1.97,0.97*1B
 $GNGSA,A,3,,,,,,,,,,,,,2.20,1.97,0.97*1D
 $GPGSV,3,1,10,04,86,101,14,09,54,262,,03,41,144,28,06,39,284,*74
 $GPGSV,3,2,10,26,29,079,20,11,21,320,,16,19,112,13,07,13,208,*78
 $GPGSV,3,3,10,31,13,046,18,29,02,021,*79
 $GLGSV,2,1,08,70,65,084,,71,55,301,,79,29,033,19,87,29,325,*6F
 $GLGSV,2,2,08,73,21,164,15,72,08,288,,69,06,101,,88,04,005,*6A
 $GNGLL,5545.7309,N,03741.1176,E,090239.000,A,A*4A
 $GNRMC,090240.000,A,5545.7309,N,03741.1169,E,2.28,107.90,111122,,,A*7A
 $GPVTG,107.90,T,,M,2.28,N,4.23,K,A*3F
 $GPGGA,090240.000,5545.7309,N,03741.1169,E,1,5,1.98,211.4,M,14.4,M,,*53
 $GNGSA,A,3,04,03,31,16,26,,,,,,,,2.20,1.98,0.97*14
 $GNGSA,A,3,,,,,,,,,,,,,2.20,1.98,0.97*12
 $GPGSV,3,1,10,04,86,101,13,09,54,262,,03,41,144,27,06,39,284,*7C
 $GPGSV,3,2,10,26,29,079,20,11,21,320,,16,19,112,12,07,13,208,*79
 $GPGSV,3,3,10,31,13,046,19,29,02,021,*78
 $GLGSV,2,1,08,70,65,084,,71,55,301,,79,29,033,19,87,29,325,*6F
 $GLGSV,2,2,08,73,21,164,15,72,08,288,,69,06,101,,88,04,005,*6A
 $GNGLL,5545.7309,N,03741.1169,E,090240.000,A,A*4A
 $GNRMC,090241.000,A,5545.7309,N,03741.1150,E,1.99,126.90,111122,,,A*7B
 $GPVTG,126.90,T,,M,1.99,N,3.69,K,A*3C
 $GPGGA,090241.000,5545.7309,N,03741.1150,E,1,5,1.98,211.4,M,14.4,M,,*58
 $GNGSA,A,3,04,03,31,16,26,,,,,,,,2.20,1.98,0.97*14
 $GNGSA,A,3,,,,,,,,,,,,,2.20,1.98,0.97*12
 $GPGSV,3,1,10,04,86,101,14,09,54,262,,03,41,144,27,06,39,284,*7B
 $GPGSV,3,2,10,26,29,079,20,11,21,320,,16,19,112,15,07,13,208,*7E
 $GPGSV,3,3,10,31,13,046,19,29,02,021,*78
 $GLGSV,2,1,08,70,65,084,,71,55,301,,79,29,033,19,87,29,325,*6F
 $GLGSV,2,2,08,73,21,164,15,72,08,288,,69,06,101,,88,04,005,*6A
 $GNGLL,5545.7309,N,03741.1150,E,090241.000,A,A*41
 $GNRMC,090242.000,A,5545.7309,N,03741.1141,E,1.71,132.51,111122,,,A*76
 $GPVTG,132.51,T,,M,1.71,N,3.17,K,A*3B
 $GPGGA,090242.000,5545.7309,N,03741.1141,E,1,5,1.98,211.4,M,14.4,M,,*5B
 $GNGSA,A,3,04,03,31,16,26,,,,,,,,2.20,1.98,0.97*14
 $GNGSA,A,3,,,,,,,,,,,,,2.20,1.98,0.97*12
 $GPGSV,3,1,10,04,86,101,14,09,54,262,,03,41,144,27,06,39,284,*7B
 $GPGSV,3,2,10,26,29,079,20,11,21,320,,16,19,112,12,07,13,208,*79
 $GPGSV,3,3,10,31,13,046,18,29,02,021,*79
 $GLGSV,2,1,08,70,65,084,,71,55,301,,79,29,033,19,87,29,325,*6F
 $GLGSV,2,2,08,73,21,164,16,72,08,288,,69,06,101,,88,04,005,*69
 $GNGLL,5545.7309,N,03741.1141,E,090242.000,A,A*42
 $GNRMC,090243.000,A,5545.7311,N,03741.1136,E,1.36,114.27,111122,,,A*78
 $GPVTG,114.27,T,,M,1.36,N,2.52,K,A*3D
 $GPGGA,090243.000,5545.7311,N,03741.1136,E,1,5,1.98,211.4,M,14.4,M,,*53
 $GNGSA,A,3,04,03,31,16,26,,,,,,,,2.20,1.98,0.97*14
 $GNGSA,A,3,,,,,,,,,,,,,2.20,1.98,0.97*12
 $GPGSV,3,1,10,04,86,101,14,09,54,262,,03,41,144,27,06,39,284,*7B
 $GPGSV,3,2,10,26,29,079,21,11,21,320,,16,19,112,15,07,13,208,*7F
 $GPGSV,3,3,10,31,13,046,18,29,02,021,*79
 $GLGSV,2,1,08,70,655
 $GNRMC,090257.000,A,5545.7386,N,03741.0772,E,2.45,300.07,111122,,,A*76
 $GPVTG,300.07,T,,M,2.45,N,4.53,K,A*38
 $GPGGA,090257.000,5545.7386,N,03741.0772,E,1,4,3.30,211.3,M,14.4,M,,*59
 $GNGSA,A,3,03,31,16,26,,,,,,,,,3.44,3.30,0.98*1C
 $GNGSA,A,3,,,,,,,,,,,,,3.44,3.30,0.98*1E
 $GPGSV,3,1,10,04,86,101,,09,54,262,,03,41,144,28,06,39,284,*71
 $GPGSV,3,2,10,26,29,079,21,11,21,320,,16,19,112,23,07,13,208,*7A
 $GPGSV,3,3,10,31,13,046,20,29,02,021,*72
 $GLGSV,2,1,08,70,65,084,,71,55,301,,79,29,033,18,87,29,325,*6E
 $GLGSV,2,2,08,73,21,164,15,72,08,288,,69,06,101,,88,04,005,*6A
 $GNGLL,5545.7386,N,03741.0772,E,090257.000,A,A*46
 $GNRMC,090258.000,A,5545.7389,N,03741.0757,E,1.90,306.15,111122,,,A*7F
 $GPVTG,306.15,T,,M,1.90,N,3.52,K,A*30
 $GPGGA,090258.000,5545.7389,N,03741.0757,E,1,4,3.30,211.3,M,14.4,M,,*5E
 $GNGSA,A,3,03,31,16,26,,,,,,,,,3.44,3.30,0.98*1C
 $GNGSA,A,3,,,,,,,,,,,,,3.44,3.30,0.98*1E
 $GPGSV,3,1,10,04,86,101,,09,54,262,,03,41,144,28,06,39,284,*71
 $GPGSV,3,2,10,26,29,079,21,11,21,320,,16,19,112,24,07,13,208,*7D
 $GPGSV,3,3,10,31,13,046,20,29,02,021,*72
 $GLGSV,2,1,08,70,65,084,,71,55,301,,79,29,033,17,87,29,325,*61
 $GLGSV,2,2,08,73,21,164,15,72,08,288,,69,06,101,,88,04,005,*6A
 $GNGLL,5545.7389,N,03741.0757,E,090258.000,A,A*41
 $GNRMC,090259.000,A,5545.7393,N,03741.0739,E,1.85,299.64,111122,,,A*78
 $GPVTG,299.64,T,,M,1.85,N,3.43,K,A*35
 $GPGGA,090259.000,5545.7393,N,03741.0739,E,1,4,3.30,211.3,M,14.4,M,,*5C
 $GNGSA,A,3,03,31,16,26,,,,,,,,,3.44,3.30,0.98*1C
 $GNGSA,A,3,,,,,,,,,,,,,3.44,3.30,0.98*1E
 $GPGSV,3,1,10,04,86,101,,09,54,262,,03,41,144,28,06,39,284,*71
 $GPGSV,3,2,10,26,29,079,21,11,21,320,,16,19,112,24,07,13,208,*7D
 $GPGSV,3,3,10,31,13,046,20,29,02,021,*72
 $GLGSV,2,1,08,70,65,084,,71,55,301,,79,29,033,17,87,29,325,*61
 $GLGSV,2,2,08,73,21,164,16,72,08,288,,69,06,101,,88,04,005,*69
 $GNGLL,5545.7393,N,03741.0739,E,090259.000,A,A*43
 $GNRMC,090300.000,A,5545.7395,N,03741.0728,E,1.07,298.53,111122,,,A*7C
 $GPVTG,298.53,T,,M,1.07,N,1.99,K,A*3F
 $GPGGA,090300.000,5545.7395,N,03741.0728,E,1,4,3.30,211.3,M,14.4,M,,*57
 $GNGSA,A,3,03,31,16,26,,,,,,,,,3.44,3.30,0.98*1C
 $GNGSA,A,3,,,,,,,,,,,,,3.44,3.30,0.98*1E
 $GPGSV,3,1,10,04,86,101,,09,54,262,,03,41,144,28,06,39,284,*71
 $GPGSV,3,2,10,26,29,079,21,11,21,320,,16,19,112,25,07,13,208,*7C
 $GPGSV,3,3,10,31,13,046,20,29,02,021,*72
 $GLGSV,2,1,08,70,65,084,,71,55,301,,79,29,033,16,87,29,325,*60
 $GLGSV,2,2,08,73,21,164,16,72,08,288,,69,06,101,,88,04,005,*69
 $GNGLL,5545.7395,N,03741.0728,E,090300.000,A,A*48
 $GNRMC,090301.000,A,5545.7398,N,03741.0721,E,1.04,305.16,111122,,,A*7E
 $GPVTG,305.16,T,,M,1.04,N,1.93,K,A*32
 $GPGGA,090301.000,5545.7398,N,03741.0721,E,1,4,3.30,211.3,M,14.4,M,,*52
 $GNGSA,A,3,03,31,16,26,,,,,,,,,3.45,3.30,0.98*1D
 $GNGSA,A,3,,,,,,,,,,,,,3.45,3.30,0.98*1F
 $GPGSV,3,1,10,04,86,101,,09,54,262,,03,41,144,28,06,39,284,*71
 $GPGSV,3,2,10,26,29,079,21,11,21,320,,16,19,112,25,07,13,208,*7C
 $GPGSV,3,3,10,31,13,046,20,29,02,021,*72
 $GLGSV,2,1,08,70,65,084,,71,55,301,,79,29,033,16,87,29,325,*60
 $GLGSV,2,2,08,73,21,164,15,72,08,288,,69,06,101,,88,04,005,*6A
 $GNGLL,5545.7398,N,03741.0721,E,090301.000,A,A*4D
 $GNRMC,090302.000,A,5545.7400,N,03741.0718,E,0.00,319.96,111122,,,A*71
 $GPVTG,319.96,T,,M,0.00,N,0.00,K,A*39
 $GPGGA,090302.000,5545.7400,N,03741.0718,E,1,4,3.30,211.3,M,14.4,M,,*5D
 $GNGSA,A,3,03,31,16,26,,,,,,,,,3.44,3.30,0.98*1C
 $GNGSA,A,3,,,,,,,,,,,,,3.44,3.30,0.98*1E
 $GPGSV,3,1,10,04,86,101,,09,54,262,,03,41,144,28,06,39,284,*71
 $GPGSV,3,2,10,26,29,079,21,11,21,320,,16,19,112,25,07,13,208,*7C
 $GPGSV,3,3,10,31,13,046,20,29,02,021,*72
 $GLGSV,2,1,08,70,65,084,,71,55,301,,79,29,033,15,87,29,325,*63
 $GLGSV,2,2,08,73,21,164,15,72,08,288,,69,06,101,,88,04,005,*6A
 $GNGLL,5545.7400,N,03741.0718,E,090302.000,A,A*42
 $GNRMC,090303.000,A,5545.7403,N,03741.0704,E,0.00,288.58,111122,,,A*75
 $GPVTG,288.58,T,,M,0.00,N,0.00,K,A*32
 $GPGGA,090303.000,5545.7403,N,03741.0704,E,1,4,3.30,211.3,M,14.4,M,,*52
 $GNGSA,A,3,03,31,16,26,,,,,,,,,3.45,3.30,0.98*1D
 $GNGSA,A,3,,,,,,,,,,,,,3.45,3.30,0.98*1F
 $GPGSV,3,1,10,04,86,101,,09,54,262,,03,41,144,28,06,39,284,*71
 $GPGSV,3,2,10,26,29,079,21,11,21,320,,16,19,112,26,07,13,208,*7F
 $GPGSV,3,3,10,31,13,046,20,29,02,021,*72
 $GLGSV,2,1,08,70,65,084,,71,55,301,,79,29,033,14,87,29,325,*62
 $GLGSV,2,2,08,73,21,164,15,72,08,288,,69,06,101,,88,04,005,*6A
 $GNGLL,5545.7403,N,03741.0704,E,090303.000,A,A*4D
 $GNRMC,090304.000,A,5545.7402,N,03741.0701,E,0.00,269.96,111122,,,A*7B
 $GPVTG,269.96,T,,M,0.00,N,0.00,K,A*3F
 $GPGGA,090304.000,5545.7402,N,03741.0701,E,1,4,3.30,211.3,M,14.4,M,,*51
 $GNGSA,A,3,03,31,16,26,,,,,,,,,3.44,3.30,0.98*1C
 $GNGSA,A,3,,,,,,,,,,,,,3.44,3.30,0.98*1E
 $GPGSV,3,1,10,04,86,101,,09,54,262,,03,41,144,28,06,39,284,*71
 $GPGSV,3,2,10,26,29,079,21,11,21,320,,16,19,112,26,07,13,208,*7F
 $GPGSV,3,3,10,31,13,046,19,29,02,021,*78
 $GLGSV,2,1,08,70,65,084,,71,55,301,,79,29,033,14,87,29,325,*62
 $GLGSV,2,2,08,73,21,164,16,72,08,288,,69,06,101,,88,04,005,*69
 $GNGLL,5545.7402,N,03741.0701,E,090304.000,A,A*4E
 $GNRMC,090305.000,A,5545.7402,N,03741.0701,E,0.00,269.96,111122,,,A*7A
 $GPVTG,269.96,T,,M,0.00,N,0.00,K,A*3F
 $GPGGA,090305.000,5545.7402,N,03741.0701,E,1,4,3.30,211.3,M,14.4,M,,*50
 $GNGSA,A,3,03,31,16,26,,,,,,,,,3.45,3.30,0.98*1D
 $GNGSA,A,3,,,,,,,,,,,,,3.45,3.30,0.98*1F
 $GPGSV,3,1,10,04,86,101,,09,54,262,,03,41,144,28,06,39,284,*71
 $GPGSV,3,2,10,26,29,079,20,11,21,320,,16,19,112,26,07,13,208,*7E
 $GPGSV,3,3,10,31,13,046,19,29,02,021,*78
 $GLGSV,2,1,08,70,65,084,,71,55,301,,79,29,033,15,87,29,325,*63
 $GLGSV,2,2,08,73,21,164,16,72,08,288,,69,05,102,,88,04,005,*69
 $GNGLL,5545.7402,N,03741.0701,E,090305.000,A,A*4F
 $GNRMC,090306.000,A,5545.7402,N,03741.0701,E,0.00,269.96,111122,,,A*79
 $GPVTG,269.96,T,,M,0.00,N,0.00,K,A*3F
 $GPGGA,090306.000,5545.7402,N,03741.0701,E,1,4,3.30,211.3,M,14.4,M,,*53
 $GNGSA,A,3,03,31,16,26,,,,,,,,,3.44,3.30,0.98*1C
 $GNGSA,A,3,,,,,,,,,,,,,3.44,3.30,0.98*1E
 $GPGSV,3,1,10,04,86,101,,09,54,262,,03,41,144,28,06,39,284,*71
 $GPGSV,3,2,10,26,29,079,20,11,21,320,,16,19,112,26,07,13,208,*7E
 $GPGSV,3,3,10,31,13,046,19,29,02,021,*78
 $GLGSV,2,1,08,70,65,085,,71,55,301,,79,29,033,16,87,29,325,*61
 $GLGSV,2,2,08,73,21,164,16,72,08,288,,69,05,102,,88,04,005,*69
 $GNGLL,5545.7402,N,03741.0701,E,090306.000,A,A*4C
 $GNRMC,090307.000,A,5545.7402,N,03741.0701,E,0.00,269.96,111122,,,A*78
 $GPVTG,269.96,T,,M,0.00,N,0.00,K,A*3F
 $GPGGA,090307.000,5545.7402,N,03741.0701,E,1,4,3.30,211.3,M,14.4,M,,*52
 $GNGSA,A,3,03,31,16,26,,,,,,,,,3.45,3.30,0.98*1D
 $GNGSA,A,3,,,,,,,,,,,,,3.45,3.30,0.98*1F
 $GPGSV,3,1,10,04,86,101,,09,54,262,,03,41,144,28,06,39,284,*71
 $GPGSV,3,2,10,26,29,079,20,11,21,320,,16,19,112,26,07,13,208,*7E
 $GPGSV,3,3,10,31,13,046,18,29,02,021,*79
 $GLGSV,2,1,08,70,65,085,,71,56,301,,79,29,033,16,87,29,325,*62
 $GLGSV,2,2,08,73,21,164,16,72,08,288,,69,05,102,,88,04,005,*69
 $GNGLL,5545.7402,N,03741.0701,E,090307.000,A,A*4D
 $GNRMC,090308.000,A,5545.7408,N,03741.0675,E,0.76,303.01,111122,,,A*7D
 $GPVTG,303.01,T,,M,0.76,N,1.40,K,A*38
 $GPGGA,090308.000,5545.7408,N,03741.0675,E,1,4,3.31,211.2,M,14.4,M,,*55
 $GNGSA,A,3,03,31,16,26,,,,,,,,,3.45,3.31,0.98*1C
 $GNGSA,A,3,,,,,,,,,,,,,3.45,3.31,0.98*1E
 $GPGSV,3,1,10,04,86,101,,09,54,262,,03,41,144,28,06,39,284,*71
 $GPGSV,3,2,10,26,29,079,20,11,21,320,,16,19,112,27,07,13,208,*7F
 $GPGSV,3,3,10,31,13,046,18,29,02,021,*79
 $GLGSV,2,1,08,70,65,085,,71,56,301,,79,29,033,16,87,29,325,*62
 $GLGSV,2,2,08,73,21,164,16,72,09,288,,69,05,102,,88,04,005,*68
 $GNGLL,5545.7408,N,03741.0675,E,090308.000,A,A*4A
 $GNRMC,090309.000,A,5545.7411,N,03741.0675,E,0.82,320.08,111122,,,A*77
 $GPVTG,320.08,T,,M,0.82,N,1.52,K,A*38
 $GPGGA,090309.000,5545.7411,N,03741.0675,E,1,4,3.31,211.2,M,14.4,M,,*5C
 $GNGSA,A,3,03,31,16,26,,,,,,,,,3.45,3.31,0.98*1C
 $GNGSA,A,3,,,,,,,,,,,,,3.45,3.31,0.98*1E
 $GPGSV,3,1,10,04,86,101,,09,54,262,,03,41,144,28,06,39,284,*71
 $GPGSV,3,2,10,26,29,079,20,11,21,320,,16,19,112,27,07,13,208,*7F
 $GPGSV,3,3,10,31,13,046,18,29,02,021,*79
 $GLGSV,2,1,08,70,65,085,,71,56,301,,79,29,033,16,87,29,325,*62
 $GLGSV,2,2,08,73,22,164,16,72,09,288,,69,05,102,,88,04,005,*6B
 $GNGLL,5545.7411,N,03741.0675,E,090309.000,A,A*43
 $GNRMC,090310.000,A,5545.7410,N,03741.0677,E,0.00,315.14,111122,,,A*7D
 $GPVTG,315.14,T,,M,0.00,N,0.00,K,A*3F
 $GPGGA,090310.000,5545.7410,N,03741.0677,E,1,4,3.30,211.2,M,14.4,M,,*56
 $GNGSA,A,3,03,31,16,26,,,,,,,,,3.45,3.30,0.98*1D
 $GNGSA,A,3,,,,,,,,,,,,,3.45,3.30,0.98*1F
 $GPGSV,3,1,10,04,86,101,,09,54,262,,03,41,144,28,06,39,284,C
 $GPGSV,3,2,10,26,29,079,23,11,21,320,,16,19,112,27,07,13,208,*7C
 $GPGSV,3,3,10,31,13,046,23,29,02,021,*71
 $GLGSV,2,1,08,70,65,085,,71,56,301,,79,29,033,17,87,29,325,*63
 $GLGSV,2,2,08,73,22,164,17,72,09,288,,69,05,102,,88,04,005,*6A
 $GNGLL,5545.7407,N,03741.0671,E,090322.000,A,A*49
 $GNRMC,090323.000,A,5545.7407,N,03741.0671,E,0.00,315.14,111122,,,A*7D
 $GPVTG,315.14,T,,M,0.00,N,0.00,K,A*3F
 $GPGGA,090323.000,5545.7407,N,03741.0671,E,1,4,3.31,211.2,M,14.4,M,,*57
 $GNGSA,A,3,03,31,16,26,,,,,,,,,3.45,3.31,0.98*1C
 $GNGSA,A,3,,,,,,,,,,,,,3.45,3.31,0.98*1E
 $GPGSV,3,1,10,04,86,101,,09,54,262,,03,41,144,25,06,39,284,*7C
 $GPGSV,3,2,10,26,29,079,23,11,21,320,,16,19,112,27,07,13,208,*7C
 $GPGSV,3,3,10,31,13,046,23,29,02,021,*71
 $GLGSV,2,1,08,70,65,085,,71,56,301,,79,29,033,17,87,29,324,*62
 $GLGSV,2,2,08,73,22,164,18,72,09,288,,69,05,102,,88,04,005,*65
 $GNGLL,5545.7407,N,03741.0671,E,090323.000,A,A*48
 $GNRMC,090324.000,A,5545.7407,N,03741.0671,E,0.00,315.14,111122,,,A*7A
 $GPVTG,315.14,T,,M,0.00,N,0.00,K,A*3F
 $GPGGA,090324.000,5545.7407,N,03741.0671,E,1,4,3.31,211.2,M,14.4,M,,*50
 $GNGSA,A,3,03,31,16,26,,,,,,,,,3.45,3.31,0.98*1C
 $GNGSA,A,3,,,,,,,,,,,,,3.45,3.31,0.98*1E
 $GPGSV,3,1,10,04,86,101,,09,54,262,,03,41,144,25,06,39,284,*7C
 $GPGSV,3,2,10,26,29,079,23,11,21,320,,16,19,112,27,07,13,208,*7C
 $GPGSV,3,3,10,31,13,046,23,29,02,021,*71
 $GLGSV,2,1,08,70,65,085,,71,56,301,,79,29,033,17,87,29,324,*62
 $GLGSV,2,2,08,73,22,164,19,72,09,288,,69,05,102,,88,05,004,*64
 $GNGLL,5545.7407,N,03741.0671,E,090324.000,A,A*4F
 $GNRMC,090325.000,A,5545.7407,N,03741.0671,E,0.00,315.14,111122,,,A*7B
 $GPVTG,315.14,T,,M,0.00,N,0.00,K,A*3F
 $GPGGA,090325.000,5545.7407,N,03741.0671,E,1,4,3.31,211.2,M,14.4,M,,*51
 $GNGSA,A,3,03,31,16,26,,,,,,,,,3.45,3.31,0.98*1C
 $GNGSA,A,3,,,,,,,,,,,,,3.45,3.31,0.98*1E
 $GPGSV,3,1,10,04,86,101,,09,54,262,,03,41,144,25,06,39,284,*7C
 $GPGSV,3,2,10,26,29,079,23,11,21,320,,16,19,112,26,07,13,208,*7D
 $GPGSV,3,3,10,31,13,046,23,29,02,021,*71
 $GLGSV,2,1,08,70,65,085,,71,56,301,,79,29,033,17,87,29,324,*62
 $GLGSV,2,2,08,73,22,164,19,72,09,288,,69,05,102,,88,05,004,*64
 $GNGLL,5545.7407,N,03741.0671,E,090325.000,A,A*4E
 $GNRMC,090326.000,A,5545.7407,N,03741.0671,E,0.00,315.14,111122,,,A*78
 $GPVTG,315.14,T,,M,0.00,N,0.00,K,A*3F
 $GPGGA,090326.000,5545.7407,N,03741.0671,E,1,4,3.31,211.2,M,14.4,M,,*52
 $GNGSA,A,3,03,31,16,26,,,,,,,,,3.46,3.31,0.98*1F
 $GNGSA,A,3,,,,,,,,,,,,,3.46,3.31,0.98*1D
 $GPGSV,3,1,10,04,86,101,,09,54,262,,03,41,144,25,06,39,284,*7C
 $GPGSV,3,2,10,26,29,079,23,11,21,320,,16,19,112,26,07,13,208,*7D
 $GPGSV,3,3,10,31,13,046,23,29,02,021,*71
 $GLGSV,2,1,08,70,65,085,,71,56,301,,79,29,033,17,87,29,324,*62
 $GLGSV,2,2,08,73,22,164,19,72,09,288,,69,05,102,,88,05,004,*64
 $GNGLL,5545.7407,N,03741.0671,E,090326.000,A,A*4D
 $GNRMC,090327.000,A,5545.7407,N,03741.0671,E,0.00,315.14,111122,,,A*79
 $GPVTG,315.14,T,,M,0.00,N,0.00,K,A*3F
 $GPGGA,090327.000,5545.7407,N,03741.0671,E,1,4,3.31,211.2,M,14.4,M,,*53
 $GNGSA,A,3,03,31,16,26,,,,,,,,,3.45,3.31,0.98*1C
 $GNGSA,A,3,,,,,,,,,,,,,3.45,3.31,0.98*1E
 $GPGSV,3,1,10,04,86,101,,09,54,262,,03,41,144,25,06,39,284,*7C
 $GPGSV,3,2,10,26,29,079,23,11,21,320,,16,19,112,26,07,13,208,*7D
 $GPGSV,3,3,10,31,13,046,23,29,02,021,*71
 $GLGSV,2,1,08,70,65,085,,71,56,301,,79,29,033,17,87,29,324,*62
 $GLGSV,2,2,08,73,22,164,18,72,09,288,,69,05,102,,88,05,004,*65
 $GNGLL,5545.7407,N,03741.0671,E,090327.000,A,A*4C
 $GNRMC,090328.000,A,5545.7407,N,03741.0671,E,0.00,315.14,111122,,,A*76
 $GPVTG,315.14,T,,M,0.00,N,0.00,K,A*3F
 $GPGGA,090328.000,5545.7407,N,03741.0671,E,1,4,3.32,211.2,M,14.4,M,,*5F
 $GNGSA,A,3,03,31,16,26,,,,,,,,,3.46,3.32,0.98*1C
 $GNGSA,A,3,,,,,,,,,,,,,3.46,3.32,0.98*1E
 $GPGSV,3,1,10,04,85,098,,09,54,262,,03,41,144,25,06,39,284,*7E
 $GPGSV,3,2,10,26,29,079,23,11,21,320,,16,19,112,26,07,13,208,*7D
 $GPGSV,3,3,10,31,13,046,23,29,02,021,*71
 $GLGSV,2,1,08,70,65,085,,71,56,301,,79,29,033,17,87,29,324,*62
 $GLGSV,2,2,08,73,22,164,18,72,09,288,,69,05,102,,88,05,004,*65
 $GNGLL,5545.7407,N,03741.0671,E,090328.000,A,A*43
 $GNRMC,090329.000,A,5545.7407,N,03741.0671,E,0.00,315.14,111122,,,A*77
 $GPVTG,315.14,T,,M,0.00,N,0.00,K,A*3F
 $GPGGA,090329.000,5545.7407,N,03741.0671,E,1,4,3.31,211.2,M,14.4,M,,*5D
 $GNGSA,A,3,03,31,16,26,,,,,,,,,3.46,3.31,0.98*1F
 $GNGSA,A,3,,,,,,,,,,,,,3.46,3.31,0.98*1D
 $GPGSV,3,1,10,04,85,098,,09,54,262,,03,41,144,25,06,39,284,*7E
 $GPGSV,3,2,10,26,29,079,23,11,21,320,,16,19,112,26,07,13,208,*7D
 $GPGSV,3,3,10,31,13,046,23,29,02,021,*71
 $GLGSV,2,1,08,70,65,085,,71,56,301,,79,29,033,17,87,29,324,*62
 $GLGSV,2,2,08,73,22,164,18,72,09,288,,69,05,102,,88,05,004,*65
 $GNGLL,5545.7407,N,03741.0671,E,090329.000,A,A*42
 $GNRMC,090330.000,A,5545.7407,N,03741.0671,E,0.00,315.14,111122,,,A*7F
 $GPVTG,315.14,T,,M,0.00,N,0.00,K,A*3F
 $GPGGA,090330.000,5545.7407,N,03741.0671,E,1,4,3.31,211.2,M,14.4,M,,*55
 $GNGSA,A,3,03,31,16,26,,,,,,,,,3.46,3.31,0.98*1F
 $GNGSA,A,3,,,,,,,,,,,,,3.46,3.31,0.98*1D
 $GPGSV,3,1,10,04,85,098,,09,54,262,,03,41,144,26,06,39,284,*7D
 $GPGSV,3,2,10,26,29,079,23,11,21,320,,16,19,112,26,07,13,208,*7D
 $GPGSV,3,3,10,31,13,046,22,29,02,021,*70
 $GLGSV,2,1,08,70,65,085,,71,56,301,,79,29,033,17,87,29,324,*62
 $GLGSV,2,2,08,73,22,164,18,72,09,288,,69,05,102,,88,05,004,*65
 $GNGLL,5545.7407,N,03741.0671,E,090330.000,A,A*4A
 $GNRMC,090331.000,A,5545.7407,N,03741.0671,E,0.00,315.14,111122,,,A*7E
 $GPVTG,315.14,T,,M,0.00,N,0.00,K,A*3F
 $GPGGA,090331.000,5545.7407,N,03741.0671,E,1,4,3.31,211.2,M,14.4,M,,*54
 $GNGSA,A,3,03,31,16,26,,,,,,,,,3.45,3.31,0.98*1C
 $GNGSA,A,3,,,,,,,,,,,,,3.45,3.31,0.98*1E
 $GPGSV,3,1,10,04,85,098,,09,54,262,,03,41,144,26,06,39,284,*7D
 $GPGSV,3,2,10,26,29,079,23,11,21,320,,16,19,112,26,07,14,208,*7A
 $GPGSV,3,3,10,31,13,046,21,29,02,021,*73
 $GLGSV,2,1,08,70,65,085,,71,56,301,,79,29,033,17,87,29,324,*62
 $GLGSV,2,2,08,73,22,164,18,72,09,288,,69,05,102,,88,05,004,*65
 $GNGLL,5545.7407,N,03741.0671,E,090331.000,A,A*4B
 $GNRMC,090332.000,A,5545.7407,N,03741.0671,E,0.00,315.14,111122,,,A*7D
 $GPVTG,315.14,T,,M,0.00,N,0.00,K,A*3F
 $GPGGA,090332.000,5545.7407,N,03741.0671,E,1,4,3.32,211.2,M,14.4,M,,*54
 $GNGSA,A,3,03,31,16,26,,,,,,,,,3.46,3.32,0.98*1C
 $GNGSA,A,3,,,,,,,,,,,,,3.46,3.32,0.98*1E
 $GPGSV,3,1,10,04,85,098,,09,54,262,,03,41,144,26,06,39,284,*7D
 $GPGSV,3,2,10,26,29,079,23,11,21,320,,16,19,112,25,07,14,208,*79
 $GPGSV,3,3,10,31,13,046,21,29,02,021,*73
 $GLGSV,2,1,08,70,65,085,,71,56,301,,79,29,033,17,87,29,324,*62
 $GLGSV,2,2,08,73,22,164,18,72,09,288,,69,05,102,,88,05,004,*65
 $GNGLL,5545.7407,N,03741.0671,E,090332.000,A,A*48
 $GNRMC,090333.000,A,5545.7407,N,03741.0671,E,0.00,315.14,111122,,,A*7C
 $GPVTG,315.14,T,,M,0.00,N,0.00,K,A*3F
 $GPGGA,090333.000,5545.7407,N,03741.0671,E,1,4,3.32,211.2,M,14.4,M,,*55
 $GNGSA,A,3,03,31,16,26,,,,,,,,,3.46,3.32,0.98*1C
 $GNGSA,A,3,,,,,,,,,,,,,3.46,3.32,0.98*1E
 $GPGSV,3,1,10,04,85,098,,09,54,262,,03,41,144,26,06,39,284,*7D
 $GPGSV,3,2,10,26,29,079,23,11,21,320,,16,19,112,25,07,14,208,*79
 $GPGSV,3,3,10,31,13,046,20,29,02,021,*72
 $GLGSV,2,1,08,70,65,085,,71,56,301,,79,29,033,17,87,29,324,*62
 $GLGSV,2,2,08,73,22,164,18,72,09,288,,69,05,102,,88,05,004,*65
 $GNGLL,5545.7407,N,03741.0671,E,090333.000,A,A*49
 $GNRMC,090334.000,A,5545.7407,N,03741.0671,E,0.00,315.14,111122,,,A*7B
 $GPVTG,315.14,T,,M,0.00,N,0.00,K,A*3F
 $GPGGA,090334.000,5545.7407,N,03741.0671,E,1,4,3.32,211.2,M,14.4,M,,*52
 $GNGSA,A,3,03,31,16,26,,,,,,,,,3.46,3.32,0.98*1C
 $GNGSA,A,3,,,,,,,,,,,,,3.46,3.32,0.98*1E
 $GPGSV,3,1,10,04,85,098,,09,54,262,,03,41,144,26,06,39,284,*7D
 $GPGSV,3,2,10,26,29,079,23,11,21,320,,16,19,112,24,07,14,208,*78
 $GPGSV,3,3,10,31,13,046,20,29,02,021,*72
 $GLGSV,2,1,08,70,65,085,,71,56,301,,79,29,033,16,87,29,324,*63
 $GLGSV,2,2,08,73,22,164,18,72,09,288,,69,05,102,,88,05,004,*65
 $GNGLL,5545.7407,N,03741.0671,E,090334.000,A,A*4E
 $GNRMC,090335.000,A,5545.7407,N,03741.0671,E,0.00,315.14,111122,,,A*7A
 $GPVTG,315.14,T,,M,0.00,N,0.00,K,A*3F
 $GPGGA,090335.000,5545.7407,N,03741.0671,E,1,4,3.32,211.2,M,14.4,M,,*53
 $GNGSA,A,3,03,31,16,26,,,,,,,,,3.46,3.32,0.98*1C
 $GNGSA,A,3,,,,,,,,,,,,,3.46,3.32,0.98*1E
 $GPGSV,3,1,10,04,85,098,,09,54,262,,03,41,144,26,06,39,284,*7D
 $GPGSV,3,2,10,26,29,079,23,11,22,320,,16,19,112,23,07,14,208,*7C
 $GPGSV,3,3,10,31,13,046,20,29,02,021,*72
 $GLGSV,2,1,08,70,65,085,,71,56,301,,79,29,033,16,87,29,324,*63
 $GLGSV,2,2,08,73,22,164,17,72,09,288,,69,05,102,,88,05,004,*6A
 $GNGLL,5545.7407,N,03741.0671,E,090335.000,A,A*4F
 $GNRMC,090336.000,A,5545.7407,N,03741.0671,E,0.00
 $GNRMC,090348.000,A,5545.7374,N,03741.0805,E,0.00,137.25,111122,,,A*7E
 $GPVTG,137.25,T,,M,0.00,N,0.00,K,A*3F
 $GPGGA,090348.000,5545.7374,N,03741.0805,E,1,4,3.32,211.3,M,14.4,M,,*56
 $GNGSA,A,3,03,31,16,26,,,,,,,,,3.46,3.32,0.98*1C
 $GNGSA,A,3,,,,,,,,,,,,,3.46,3.32,0.98*1E
 $GPGSV,3,1,10,04,85,098,,09,54,262,,03,41,144,26,06,39,284,*7D
 $GPGSV,3,2,10,26,29,079,23,11,22,320,,16,20,112,12,07,14,208,*74
 $GPGSV,3,3,10,31,13,046,19,29,02,021,*78
 $GLGSV,2,1,08,70,65,085,,71,56,301,,79,29,033,17,87,29,324,*62
 $GLGSV,2,2,08,73,22,164,18,72,09,288,,69,05,102,,88,05,004,*65
 $GNGLL,5545.7374,N,03741.0805,E,090348.000,A,A*4B
 $GNRMC,090349.000,A,5545.7373,N,03741.0812,E,0.00,125.84,111122,,,A*76
 $GPVTG,125.84,T,,M,0.00,N,0.00,K,A*37
 $GPGGA,090349.000,5545.7373,N,03741.0812,E,1,4,3.32,211.3,M,14.4,M,,*56
 $GNGSA,A,3,03,31,16,26,,,,,,,,,3.46,3.32,0.98*1C
 $GNGSA,A,3,,,,,,,,,,,,,3.46,3.32,0.98*1E
 $GPGSV,3,1,10,04,85,098,,09,54,262,,03,41,144,26,06,39,284,*7D
 $GPGSV,3,2,10,26,29,079,23,11,22,320,,16,20,112,11,07,14,208,*77
 $GPGSV,3,3,10,31,13,046,19,29,02,021,*78
 $GLGSV,2,1,08,70,65,085,,71,56,301,,79,29,033,17,87,29,324,*62
 $GLGSV,2,2,08,73,22,164,18,72,09,288,,69,05,102,,88,05,004,*65
 $GNGLL,5545.7373,N,03741.0812,E,090349.000,A,A*4B
 $GNRMC,090350.000,A,5545.7372,N,03741.0813,E,0.00,156.50,111122,,,A*73
 $GPVTG,156.50,T,,M,0.00,N,0.00,K,A*3A
 $GPGGA,090350.000,5545.7372,N,03741.0813,E,1,4,3.32,211.3,M,14.4,M,,*5E
 $GNGSA,A,3,03,31,16,26,,,,,,,,,3.46,3.32,0.98*1C
 $GNGSA,A,3,,,,,,,,,,,,,3.46,3.32,0.98*1E
 $GPGSV,3,1,10,04,85,098,,09,54,262,,03,41,144,26,06,39,284,*7D
 $GPGSV,3,2,10,26,29,078,23,11,22,320,,16,20,112,14,07,14,208,*73
 $GPGSV,3,3,10,31,13,046,20,29,02,021,*72
 $GLGSV,2,1,08,70,65,085,,71,56,301,,79,29,033,17,87,29,324,*62
 $GLGSV,2,2,08,73,22,164,18,72,09,288,,69,05,102,,88,05,004,*65
 $GNGLL,5545.7372,N,03741.0813,E,090350.000,A,A*43
 $GNRMC,090351.000,A,5545.7372,N,03741.0813,E,0.00,156.50,111122,,,A*72
 $GPVTG,156.50,T,,M,0.00,N,0.00,K,A*3A
 $GPGGA,090351.000,5545.7372,N,03741.0813,E,1,4,3.32,211.3,M,14.4,M,,*5F
 $GNGSA,A,3,03,31,16,26,,,,,,,,,3.46,3.32,0.98*1C
 $GNGSA,A,3,,,,,,,,,,,,,3.46,3.32,0.98*1E
 $GPGSV,3,1,10,04,85,098,,09,54,262,,03,41,144,26,06,39,284,*7D
 $GPGSV,3,2,10,26,29,078,23,11,22,320,,16,20,112,14,07,14,208,*73
 $GPGSV,3,3,10,31,13,046,21,29,02,021,*73
 $GLGSV,2,1,08,70,65,085,,71,56,301,,79,29,033,17,87,29,324,*62
 $GLGSV,2,2,08,73,22,164,18,72,09,288,,69,05,102,,88,05,004,*65
 $GNGLL,5545.7372,N,03741.0813,E,090351.000,A,A*42
 $GNRMC,090352.000,A,5545.7372,N,03741.0813,E,0.00,156.50,111122,,,A*71
 $GPVTG,156.50,T,,M,0.00,N,0.00,K,A*3A
 $GPGGA,090352.000,5545.7372,N,03741.0813,E,1,4,3.32,211.3,M,14.4,M,,*5C
 $GNGSA,A,3,03,31,16,26,,,,,,,,,3.47,3.32,0.98*1D
 $GNGSA,A,3,,,,,,,,,,,,,3.47,3.32,0.98*1F
 $GPGSV,3,1,10,04,85,098,,09,54,262,,03,41,144,26,06,39,284,*7D
 $GPGSV,3,2,10,26,29,078,23,11,22,320,,16,20,112,14,07,14,208,*73
 $GPGSV,3,3,10,31,13,046,22,29,02,021,*70
 $GLGSV,2,1,08,70,65,085,,71,56,301,,79,29,033,16,87,29,324,*63
 $GLGSV,2,2,08,73,22,164,18,72,09,288,,69,05,102,,88,05,004,*65
 $GNGLL,5545.7372,N,03741.0813,E,090352.000,A,A*41
 $GNRMC,090353.000,A,5545.7372,N,03741.0813,E,0.00,156.50,111122,,,A*70
 $GPVTG,156.50,T,,M,0.00,N,0.00,K,A*3A
 $GPGGA,090353.000,5545.7372,N,03741.0813,E,1,4,3.32,211.3,M,14.4,M,,*5D
 $GNGSA,A,3,03,31,16,26,,,,,,,,,3.47,3.32,0.98*1D
 $GNGSA,A,3,,,,,,,,,,,,,3.47,3.32,0.98*1F
 $GPGSV,3,1,10,04,85,098,,09,54,262,,03,41,144,26,06,39,284,*7D
 $GPGSV,3,2,10,26,29,078,23,11,22,320,,16,20,112,15,07,14,208,*72
 $GPGSV,3,3,10,31,13,046,22,29,02,021,*70
 $GLGSV,2,1,08,70,65,085,,71,56,301,,79,29,033,16,87,29,324,*63
 $GLGSV,2,2,08,73,22,164,18,72,09,288,,69,05,102,,88,05,004,*65
 $GNGLL,5545.7372,N,03741.0813,E,090353.000,A,A*40
 $GNRMC,090354.000,A,5545.7372,N,03741.0813,E,0.00,156.50,111122,,,A*77
 $GPVTG,156.50,T,,M,0.00,N,0.00,K,A*3A
 $GPGGA,090354.000,5545.7372,N,03741.0813,E,1,4,3.32,211.3,M,14.4,M,,*5A
 $GNGSA,A,3,03,31,16,26,,,,,,,,,3.47,3.32,0.98*1D
 $GNGSA,A,3,,,,,,,,,,,,,3.47,3.32,0.98*1F
 $GPGSV,3,1,10,04,85,098,,09,54,262,,03,41,144,26,06,39,284,*7D
 $GPGSV,3,2,10,26,29,078,23,11,22,320,,16,20,112,16,07,14,208,*71
 $GPGSV,3,3,10,31,13,046,22,29,02,021,*70
 $GLGSV,2,1,08,70,65,085,,71,56,301,,79,29,033,16,87,29,324,*63
 $GLGSV,2,2,08,73,22,164,18,72,09,288,,69,05,102,,88,05,004,*65
 $GNGLL,5545.7372,N,03741.0813,E,090354.000,A,A*47
 $GNRMC,090355.000,A,5545.7372,N,03741.0813,E,0.00,156.50,111122,,,A*76
 $GPVTG,156.50,T,,M,0.00,N,0.00,K,A*3A
 $GPGGA,090355.000,5545.7372,N,03741.0813,E,1,4,3.32,211.3,M,14.4,M,,*5B
 $GNGSA,A,3,03,31,16,26,,,,,,,,,3.47,3.32,0.98*1D
 $GNGSA,A,3,,,,,,,,,,,,,3.47,3.32,0.98*1F
 $GPGSV,3,1,10,04,85,098,,09,54,262,,03,41,144,26,06,39,284,*7D
 $GPGSV,3,2,10,26,29,078,23,11,22,320,,16,20,112,17,07,14,208,*70
 $GPGSV,3,3,10,31,13,046,22,29,02,021,*70
 $GLGSV,2,1,08,70,65,085,,71,56,301,,79,29,033,15,87,29,324,*60
 $GLGSV,2,2,08,73,22,164,19,72,09,288,,69,05,102,,88,05,004,*64
 $GNGLL,5545.7372,N,03741.0813,E,090355.000,A,A*46
 $GNRMC,090356.000,A,5545.7372,N,03741.0813,E,0.00,156.50,111122,,,A*75
 $GPVTG,156.50,T,,M,0.00,N,0.00,K,A*3A
 $GPGGA,090356.000,5545.7372,N,03741.0813,E,1,4,3.33,211.3,M,14.4,M,,*59
 $GNGSA,A,3,03,31,16,26,,,,,,,,,3.47,3.33,0.98*1C
 $GNGSA,A,3,,,,,,,,,,,,,3.47,3.33,0.98*1E
 $GPGSV,3,1,10,04,85,098,,09,54,262,,03,41,144,26,06,39,284,*7D
 $GPGSV,3,2,10,26,29,078,23,11,22,320,,16,20,112,16,07,14,208,*71
 $GPGSV,3,3,10,31,13,046,23,29,02,021,*71
 $GLGSV,2,1,08,70,65,085,,71,56,301,,79,29,033,15,87,29,324,*60
 $GLGSV,2,2,08,73,22,164,19,72,09,288,,69,05,102,,88,05,004,*64
 $GNGLL,5545.7372,N,03741.0813,E,090356.000,A,A*45
 $GNRMC,090357.000,A,5545.7372,N,03741.0813,E,0.00,156.50,111122,,,A*74
 $GPVTG,156.50,T,,M,0.00,N,0.00,K,A*3A
 $GPGGA,090357.000,5545.7372,N,03741.0813,E,1,4,3.33,211.3,M,14.4,M,,*58
 $GNGSA,A,3,03,31,16,26,,,,,,,,,3.47,3.33,0.98*1C
 $GNGSA,A,3,,,,,,,,,,,,,3.47,3.33,0.98*1E
 $GPGSV,3,1,10,04,85,098,,09,54,262,,03,41,144,26,06,39,284,*7D
 $GPGSV,3,2,10,26,29,078,23,11,22,320,,16,20,112,16,07,14,208,*71
 $GPGSV,3,3,10,31,13,046,23,29,02,021,*71
 $GLGSV,2,1,08,70,65,085,,71,56,301,,79,29,033,16,87,29,324,*63
 $GLGSV,2,2,08,73,22,164,19,72,09,288,,69,05,102,,88,05,004,*64
 $GNGLL,5545.7372,N,03741.0813,E,090357.000,A,A*44
 $GNRMC,090358.000,A,5545.7372,N,03741.0813,E,0.00,156.50,111122,,,A*7B
 $GPVTG,156.50,T,,M,0.00,N,0.00,K,A*3A
 $GPGGA,090358.000,5545.7372,N,03741.0813,E,1,4,3.33,211.3,M,14.4,M,,*57
 $GNGSA,A,3,03,31,16,26,,,,,,,,,3.47,3.33,0.98*1C
 $GNGSA,A,3,,,,,,,,,,,,,3.47,3.33,0.98*1E
 $GPGSV,3,1,10,04,85,098,,09,54,262,,03,41,144,26,06,39,284,*7D
 $GPGSV,3,2,10,26,29,078,23,11,22,320,,16,20,112,16,07,14,208,*71
 $GPGSV,3,3,10,31,13,046,22,29,02,021,*70
 $GLGSV,2,1,08,70,65,085,,71,56,301,,79,29,033,16,87,29,324,*63
 $GLGSV,2,2,08,73,22,164,19,72,09,288,,69,05,102,,88,05,004,*64
 $GNGLL,5545.7372,N,03741.0813,E,090358.000,A,A*4B
 $GNRMC,090359.000,A,5545.7372,N,03741.0813,E,0.00,156.50,111122,,,A*7A
 $GPVTG,156.50,T,,M,0.00,N,0.00,K,A*3A
 $GPGGA,090359.000,5545.7372,N,03741.0813,E,1,4,3.33,211.3,M,14.4,M,,*56
 $GNGSA,A,3,03,31,16,26,,,,,,,,,3.47,3.33,0.98*1C
 $GNGSA,A,3,,,,,,,,,,,,,3.47,3.33,0.98*1E
 $GPGSV,3,1,10,04,85,098,,09,54,262,,03,41,144,26,06,39,284,*7D
 $GPGSV,3,2,10,26,29,078,23,11,22,320,,16,20,112,16,07,14,208,*71
 $GPGSV,3,3,10,31,13,046,22,29,02,021,*70
 $GLGSV,2,1,08,70,65,085,,71,56,301,,79,29,033,16,87,29,324,*63
 $GLGSV,2,2,08,73,22,164,19,72,09,288,,69,05,102,,88,05,004,*64
 $GNGLL,5545.7372,N,03741.0813,E,090359.000,A,A*4A
 $GNRMC,090400.000,A,5545.7372,N,03741.0813,E,0.00,156.50,111122,,,A*71
 $GPVTG,156.50,T,,M,0.00,N,0.00,K,A*3A
 $GPGGA,090400.000,5545.7372,N,03741.0813,E,1,4,3.33,211.3,M,14.4,M,,*5D
 $GNGSA,A,3,03,31,16,26,,,,,,,,,3.47,3.33,0.98*1C
 $GNGSA,A,3,,,,,,,,,,,,,3.47,3.33,0.98*1E
 $GPGSV,3,1,10,04,85,098,,09,54,262,,03,41,144,27,06,39,284,*7C
 $GPGSV,3,2,10,26,29,078,23,11,22,320,,16,20,112,17,07,14,208,*70
 $GPGSV,3,3,10,31,13,046,22,29,02,021,*70
 $GLGSV,2,1,08,70,65,085,,71,56,301,,79,29,033,16,87,29,324,*63
 $GLGSV,2,2,08,73,22,164,19,72,09,288,,69,05,102,,88,05,004,*64
 $GNGLL,5545.7372,N,03741.0813,E,090400.000,A,A*41
 $GNRMC,090401.000,A,5545.7372,N,03741.0813,E,0.00,156.50,111122,,,A*70
 $GPVTG,156.50,T,,M,0.00,N,0.00,K,A*3A
 $GPGGA,090401.000,5545.7372,N,03741.0813,E,1,4,3.33,211.3,M,14.4,M,,*5C
 $GNGSA,A,3,03,31,16,26,,,,,,,,,3.47,3.33,0.98*1C
 $GNGSA,A,3,,,,,,,,,,,,,3.47,3.33,0.98*1E
 $GPGSV,3,1,10,04,85,098,,09,54,262,,03,41,144,27,06,39,284,1
 $GLGSV,2,1,08,70,65,085,,71,56,301,,79,29,033,14,87,29,324,*61
 $GLGSV,2,2,08,73,22,164,19,72,09,288,,69,05,102,,88,05,004,*64
 $GNGLL,5545.7393,N,03741.0559,E,090413.000,A,A*4F
 $GNRMC,090414.000,A,5545.7393,N,03741.0559,E,0.00,274.90,111122,,,A*77
 $GPVTG,274.90,T,,M,0.00,N,0.00,K,A*35
 $GPGGA,090414.000,5545.7393,N,03741.0559,E,1,4,3.33,211.7,M,14.4,M,,*50
 $GNGSA,A,3,03,31,16,26,,,,,,,,,3.47,3.33,0.98*1C
 $GNGSA,A,3,,,,,,,,,,,,,3.47,3.33,0.98*1E
 $GPGSV,3,1,10,04,85,098,,09,54,262,,03,41,144,26,06,39,284,*7D
 $GPGSV,3,2,10,26,29,078,20,11,22,320,,16,20,112,28,07,14,208,*7F
 $GPGSV,3,3,10,31,13,046,23,29,02,021,*71
 $GLGSV,2,1,08,70,65,085,,71,56,301,,79,29,033,14,87,29,324,*61
 $GLGSV,2,2,08,73,22,164,19,72,09,288,,69,05,102,,88,05,004,*64
 $GNGLL,5545.7393,N,03741.0559,E,090414.000,A,A*48
 $GNRMC,090415.000,A,5545.7393,N,03741.0559,E,0.00,274.90,111122,,,A*76
 $GPVTG,274.90,T,,M,0.00,N,0.00,K,A*35
 $GPGGA,090415.000,5545.7393,N,03741.0559,E,1,4,3.33,211.7,M,14.4,M,,*51
 $GNGSA,A,3,03,31,16,26,,,,,,,,,3.48,3.33,0.98*13
 $GNGSA,A,3,,,,,,,,,,,,,3.48,3.33,0.98*11
 $GPGSV,3,1,10,04,85,098,,09,54,262,,03,41,144,27,06,39,284,*7C
 $GPGSV,3,2,10,26,29,078,20,11,22,320,,16,20,112,28,07,14,208,*7F
 $GPGSV,3,3,10,31,13,046,22,29,02,021,*70
 $GLGSV,2,1,08,70,65,085,,71,56,301,,79,29,033,14,87,29,324,*61
 $GLGSV,2,2,08,73,22,164,19,72,09,288,,69,05,102,,88,05,004,*64
 $GNGLL,5545.7393,N,03741.0559,E,090415.000,A,A*49
 $GNRMC,090416.000,A,5545.7393,N,03741.0559,E,0.00,274.90,111122,,,A*75
 $GPVTG,274.90,T,,M,0.00,N,0.00,K,A*35
 $GPGGA,090416.000,5545.7393,N,03741.0559,E,1,4,3.34,211.7,M,14.4,M,,*55
 $GNGSA,A,3,03,31,16,26,,,,,,,,,3.48,3.34,0.98*14
 $GNGSA,A,3,,,,,,,,,,,,,3.48,3.34,0.98*16
 $GPGSV,3,1,10,04,85,098,,09,54,262,,03,41,144,27,06,39,284,*7C
 $GPGSV,3,2,10,26,29,078,20,11,22,320,,16,20,112,28,07,14,208,*7F
 $GPGSV,3,3,10,31,13,046,21,29,02,021,*73
 $GLGSV,2,1,08,70,65,085,,71,56,301,,79,29,033,14,87,29,324,*61
 $GLGSV,2,2,08,73,22,164,20,72,09,288,,69,05,102,,88,05,004,*6E
 $GNGLL,5545.7393,N,03741.0559,E,090416.000,A,A*4A
 $GNRMC,090417.000,A,5545.7393,N,03741.0559,E,0.00,274.90,111122,,,A*74
 $GPVTG,274.90,T,,M,0.00,N,0.00,K,A*35
 $GPGGA,090417.000,5545.7393,N,03741.0559,E,1,4,3.33,211.7,M,14.4,M,,*53
 $GNGSA,A,3,03,31,16,26,,,,,,,,,3.48,3.33,0.98*13
 $GNGSA,A,3,,,,,,,,,,,,,3.48,3.33,0.98*11
 $GPGSV,3,1,10,04,85,098,,09,54,262,,03,41,144,26,06,39,284,*7D
 $GPGSV,3,2,10,26,29,078,20,11,22,320,,16,20,112,28,07,14,208,*7F
 $GPGSV,3,3,10,31,13,046,21,29,02,021,*73
 $GLGSV,2,1,08,70,65,085,,71,56,301,,79,29,033,14,87,29,324,*61
 $GLGSV,2,2,08,73,22,164,20,72,09,288,,69,05,102,,88,05,004,*6E
 $GNGLL,5545.7393,N,03741.0559,E,090417.000,A,A*4B
 $GNRMC,090418.000,A,5545.7393,N,03741.0559,E,0.00,274.90,111122,,,A*7B
 $GPVTG,274.90,T,,M,0.00,N,0.00,K,A*35
 $GPGGA,090418.000,5545.7393,N,03741.0559,E,1,4,3.34,211.7,M,14.4,M,,*5B
 $GNGSA,A,3,03,31,16,26,,,,,,,,,3.48,3.34,0.98*14
 $GNGSA,A,3,,,,,,,,,,,,,3.48,3.34,0.98*16
 $GPGSV,3,1,10,04,85,098,,09,54,262,,03,41,144,26,06,39,284,*7D
 $GPGSV,3,2,10,26,29,078,20,11,22,320,,16,20,112,28,07,14,208,*7F
 $GPGSV,3,3,10,31,13,046,21,29,02,021,*73
 $GLGSV,2,1,08,70,65,085,,71,56,301,,79,29,033,14,87,29,324,*61
 $GLGSV,2,2,08,73,22,164,20,72,09,288,,69,05,102,,88,05,004,*6E
 $GNGLL,5545.7393,N,03741.0559,E,090418.000,A,A*44
 $GNRMC,090419.000,A,5545.7392,N,03741.0662,E,1.43,105.70,111122,,,A*7D
 $GPVTG,105.70,T,,M,1.43,N,2.65,K,A*39
 $GPGGA,090419.000,5545.7392,N,03741.0662,E,1,4,3.34,211.9,M,14.4,M,,*5E
 $GNGSA,A,3,03,31,16,26,,,,,,,,,3.48,3.34,0.98*14
 $GNGSA,A,3,,,,,,,,,,,,,3.48,3.34,0.98*16
 $GPGSV,3,1,10,04,85,098,,09,54,262,,03,41,144,26,06,39,284,*7D
 $GPGSV,3,2,10,26,29,078,20,11,22,320,,16,20,112,28,07,14,208,*7F
 $GPGSV,3,3,10,31,13,046,21,29,02,021,*73
 $GLGSV,2,1,08,70,65,085,,71,56,301,,79,29,033,14,87,29,324,*61
 $GLGSV,2,2,08,73,22,164,20,72,09,288,,69,05,102,,88,05,004,*6E
 $GNGLL,5545.7392,N,03741.0662,E,090419.000,A,A*4F
 $GNRMC,090420.000,A,5545.7391,N,03741.0678,E,1.46,97.07,111122,,,A*40
 $GPVTG,97.07,T,,M,1.46,N,2.70,K,A*02
 $GPGGA,090420.000,5545.7391,N,03741.0678,E,1,4,3.33,211.9,M,14.4,M,,*5B
 $GNGSA,A,3,03,31,16,26,,,,,,,,,3.48,3.33,0.98*13
 $GNGSA,A,3,,,,,,,,,,,,,3.48,3.33,0.98*11
 $GPGSV,3,1,10,04,85,098,,09,54,262,,03,41,144,26,06,39,284,*7D
 $GPGSV,3,2,10,26,29,078,20,11,22,320,,16,20,112,28,07,14,208,*7F
 $GPGSV,3,3,10,31,13,046,21,29,02,021,*73
 $GLGSV,2,1,08,70,65,085,,71,56,301,,79,29,033,15,87,29,324,*60
